Country,City,Total Tons,First Mission,Last Mission,Num Missions,location,direccion,lat,lon
FRANCE,43 00 N 005 40 E,408.0,8/12/1944,8/20/1944,15,,"43 00 N 005 40 E, France",,
FRANCE,43 00 N 006 20 E,213.0,8/15/1944,8/15/1944,15,,"43 00 N 006 20 E, France",,
FRANCE,43 20 N 004 20 E,9.0,7/12/1944,7/12/1944,3,"N, Les Salins, Hyères, Toulon, Var, Provence-Alpes-Côte d'Azur, France métropolitaine, 83400, France","43 20 N 004 20 E, France",43.1198569,6.1823043
FRANCE,43 20 N 004 40 E,9.0,7/12/1944,7/12/1944,3,"N, Les Salins, Hyères, Toulon, Var, Provence-Alpes-Côte d'Azur, France métropolitaine, 83400, France","43 20 N 004 40 E, France",43.1198569,6.1823043
FRANCE,43 20 N 006 00 E,72.0,8/16/1944,8/16/1944,6,"N, Les Salins, Hyères, Toulon, Var, Provence-Alpes-Côte d'Azur, France métropolitaine, 83400, France","43 20 N 006 00 E, France",43.1198569,6.1823043
FRANCE,43 20 N 006 20 E,30.0,8/15/1944,8/15/1944,3,"N, Les Salins, Hyères, Toulon, Var, Provence-Alpes-Côte d'Azur, France métropolitaine, 83400, France","43 20 N 006 20 E, France",43.1198569,6.1823043
FRANCE,43 20 N 006 40 E,6.0,8/15/1944,8/15/1944,3,"N, Les Salins, Hyères, Toulon, Var, Provence-Alpes-Côte d'Azur, France métropolitaine, 83400, France","43 20 N 006 40 E, France",43.1198569,6.1823043
FRANCE,43 40 N 004 40 E,72.0,6/2/1944,6/2/1944,2,"N, Les Salins, Hyères, Toulon, Var, Provence-Alpes-Côte d'Azur, France métropolitaine, 83400, France","43 40 N 004 40 E, France",43.1198569,6.1823043
FRANCE,44 00 N 000,9.0,8/7/1944,8/7/1944,3,,"44 00 N 000, France",,
FRANCE,44 00 N 000 40 E,68.0,7/1/1944,8/23/1944,7,,"44 00 N 000 40 E, France",,
FRANCE,44 00 N 001 00 E,3.0,7/12/1944,7/12/1944,1,,"44 00 N 001 00 E, France",,
FRANCE,44 00 N 002 00 E,84.0,8/23/1944,8/23/1944,3,,"44 00 N 002 00 E, France",,
FRANCE,44 20 N 006 20 E,70.0,8/19/1944,8/19/1944,2,"N, Les Salins, Hyères, Toulon, Var, Provence-Alpes-Côte d'Azur, France métropolitaine, 83400, France","44 20 N 006 20 E, France",43.1198569,6.1823043
FRANCE,44 40 N 006 20 E,410.0,3/31/1945,4/9/1945,464,,"44 40 N 006 20 E, France",,
FRANCE,45 00 N 003 20 E,18.0,8/13/1944,8/13/1944,2,,"45 00 N 003 20 E, France",,
FRANCE,45 20 N 007 40 E,21.0,7/6/1944,7/6/1944,3,"N, Les Salins, Hyères, Toulon, Var, Provence-Alpes-Côte d'Azur, France métropolitaine, 83400, France","45 20 N 007 40 E, France",43.1198569,6.1823043
FRANCE,45 20 N 010 20 E,46.0,7/8/1944,7/8/1944,2,"N, Les Salins, Hyères, Toulon, Var, Provence-Alpes-Côte d'Azur, France métropolitaine, 83400, France","45 20 N 010 20 E, France",43.1198569,6.1823043
FRANCE,45 40 N 005 20 E,72.0,8/24/1944,8/24/1944,3,"N, Les Salins, Hyères, Toulon, Var, Provence-Alpes-Côte d'Azur, France métropolitaine, 83400, France","45 40 N 005 20 E, France",43.1198569,6.1823043
FRANCE,45 40 N 006 20 E,144.0,8/11/1944,8/11/1944,3,"N, Les Salins, Hyères, Toulon, Var, Provence-Alpes-Côte d'Azur, France métropolitaine, 83400, France","45 40 N 006 20 E, France",43.1198569,6.1823043
FRANCE,45 40 N 010 40 E,63.0,5/1/1945,5/1/1945,3,"N, Les Salins, Hyères, Toulon, Var, Provence-Alpes-Côte d'Azur, France métropolitaine, 83400, France","45 40 N 010 40 E, France",43.1198569,6.1823043
FRANCE,45 40 N 013 00 E,54.0,9/10/1944,9/10/1944,3,"N, Les Salins, Hyères, Toulon, Var, Provence-Alpes-Côte d'Azur, France métropolitaine, 83400, France","45 40 N 013 00 E, France",43.1198569,6.1823043
FRANCE,46 00 N 010 40 E,6.0,7/6/1944,7/6/1944,3,,"46 00 N 010 40 E, France",,
FRANCE,46 00 N 011 00 E,20.0,7/25/1944,7/25/1944,2,"N, Les Salins, Hyères, Toulon, Var, Provence-Alpes-Côte d'Azur, France métropolitaine, 83400, France","46 00 N 011 00 E, France",43.1198569,6.1823043
FRANCE,46 20 N 001 00 E,20.0,8/14/1944,8/14/1944,2,,"46 20 N 001 00 E, France",,
FRANCE,47 00 N 000 40 W,24.0,9/11/1944,9/11/1944,3,,"47 00 N 000 40 W, France",,
FRANCE,47 00 N 004 40 E,24.0,8/7/1944,8/7/1944,3,,"47 00 N 004 40 E, France",,
FRANCE,48 00 N 005 20 E,84.0,7/11/1944,7/11/1944,3,,"48 00 N 005 20 E, France",,
FRANCE,48 15 N 008 00 E,840.0,12/24/1944,9/3/1943,80,"N, Les Salins, Hyères, Toulon, Var, Provence-Alpes-Côte d'Azur, France métropolitaine, 83400, France","48 15 N 008 00 E, France",43.1198569,6.1823043
FRANCE,48 20 N 000 20 E,51.0,7/6/1944,7/6/1944,3,"N, Les Salins, Hyères, Toulon, Var, Provence-Alpes-Côte d'Azur, France métropolitaine, 83400, France","48 20 N 000 20 E, France",43.1198569,6.1823043
FRANCE,48 20 N 000 40 W,168.0,8/18/1944,8/19/1944,9,,"48 20 N 000 40 W, France",,
FRANCE,48 20 N 005 00 E,147.0,8/14/1944,8/15/1944,9,"N, Les Salins, Hyères, Toulon, Var, Provence-Alpes-Côte d'Azur, France métropolitaine, 83400, France","48 20 N 005 00 E, France",43.1198569,6.1823043
FRANCE,48 20 N 005 20 E,318.0,10/1/1944,8/15/1944,15,"N, Les Salins, Hyères, Toulon, Var, Provence-Alpes-Côte d'Azur, France métropolitaine, 83400, France","48 20 N 005 20 E, France",43.1198569,6.1823043
FRANCE,49 00 N 003 40 E,75.0,5/1/1945,5/1/1945,3,"N, Les Salins, Hyères, Toulon, Var, Provence-Alpes-Côte d'Azur, France métropolitaine, 83400, France","49 00 N 003 40 E, France",43.1198569,6.1823043
FRANCE,49 00 N 006 20 E,99.0,9/11/1944,9/11/1944,3,"N, Les Salins, Hyères, Toulon, Var, Provence-Alpes-Côte d'Azur, France métropolitaine, 83400, France","49 00 N 006 20 E, France",43.1198569,6.1823043
FRANCE,49 20 N 003 20 E,216.0,6/22/1944,6/24/1944,6,"N, Les Salins, Hyères, Toulon, Var, Provence-Alpes-Côte d'Azur, France métropolitaine, 83400, France","49 20 N 003 20 E, France",43.1198569,6.1823043
FRANCE,49 20 N 003 40 E,15.0,6/22/1944,6/22/1944,15,"N, Les Salins, Hyères, Toulon, Var, Provence-Alpes-Côte d'Azur, France métropolitaine, 83400, France","49 20 N 003 40 E, France",43.1198569,6.1823043
FRANCE,49 20 N 006 00 E,258.0,9/11/1944,9/11/1944,6,"N, Les Salins, Hyères, Toulon, Var, Provence-Alpes-Côte d'Azur, France métropolitaine, 83400, France","49 20 N 006 00 E, France",43.1198569,6.1823043
FRANCE,49 40 N 001 20 E,9.0,10/13/1944,10/13/1944,3,"N, Les Salins, Hyères, Toulon, Var, Provence-Alpes-Côte d'Azur, France métropolitaine, 83400, France","49 40 N 001 20 E, France",43.1198569,6.1823043
FRANCE,ABANCOURT,18.0,6/6/1944,6/6/1944,2,"Abancourt, Beauvais, Oise, Hauts-de-France, France métropolitaine, 60220, France","ABANCOURT, France",49.6977145,1.7646826
FRANCE,ABBEVILLE,3897.0,1/13/1943,9/9/1943,194,"Abbeville, Somme, Hauts-de-France, France métropolitaine, 80100, France","ABBEVILLE, France",50.1060835,1.8337029
FRANCE,ACHERES,1707.0,3/31/1944,6/6/1944,15,"Achères, Bourges, Cher, Centre-Val de Loire, France métropolitaine, 18250, France","ACHERES, France",47.2774561,2.4491821
FRANCE,ACHIET,704.0,5/24/1944,8/4/1944,16,"Achiet, Rue de la Gare, Achiet-le-Grand, Arras, Pas-de-Calais, Hauts-de-France, France métropolitaine, 62121, France","ACHIET, France",50.1316397,2.7804752
FRANCE,ACQUET,530.0,7/12/1944,8/9/1944,11,"Acquet, Neuilly-le-Dien, Abbeville, Somme, Hauts-de-France, France métropolitaine, 80150, France","ACQUET, France",50.2269096,2.0565356
FRANCE,AGAY,42.0,11/11/1943,2/12/1944,2,"Agay, Allée Bérenger, Le Castellas, Saint-Raphaël, Draguignan, Var, Provence-Alpes-Côte d'Azur, France métropolitaine, 83530, France","AGAY, France",43.4313633,6.8565322
FRANCE,AGENVILLE,383.0,8/31/1944,8/31/1944,3,"Agenville, Amiens, Somme, Hauts-de-France, France métropolitaine, 80370, France","AGENVILLE, France",50.16507,2.10245
FRANCE,AIGREMONT,126.0,6/7/1944,6/7/1944,2,"Aigremont, Auxerre, Yonne, Bourgogne-Franche-Comté, France métropolitaine, 89800, France","AIGREMONT, France",47.7185581,3.8897807
FRANCE,AILLY LE HAUT CLOCH,64.0,5/8/1944,5/8/1944,2,,"AILLY LE HAUT CLOCH, France",,
FRANCE,AILLY LE HAUT CLOCHE,863.0,1/14/1944,12/22/1943,7,,"AILLY LE HAUT CLOCHE, France",,
FRANCE,AIRE,163.0,7/4/1941,7/6/1944,4,"Aire, Rethel, Ardennes, Grand Est, France métropolitaine, 08190, France","AIRE, France",49.4808857,4.1610461
FRANCE,AIRE SUR LA LYS,319.0,8/8/1944,8/8/1944,2,"Aire-sur-la-Lys, Saint-Omer, Pas-de-Calais, Hauts-de-France, France métropolitaine, 62120, France","AIRE SUR LA LYS, France",50.6395937,2.4000602
FRANCE,ALBERSCHWEILER,70.0,3/20/1945,3/20/1945,2,"Abreschviller, Sarrebourg-Château-Salins, Moselle, Grand Est, France métropolitaine, 57560, France","ALBERSCHWEILER, France",48.6370241,7.0979423
FRANCE,ALENCON,417.0,6/6/1944,6/8/1944,2,"Alençon, Orne, Normandie, France métropolitaine, 61000, France","ALENCON, France",48.4312059,0.0911374
FRANCE,ALMENECHES,81.0,6/6/1944,6/6/1944,3,"Almenêches, Alençon, Orne, Normandie, France métropolitaine, 61570, France","ALMENECHES, France",48.6974684,0.1095293
FRANCE,AMBERIEU,102.0,5/25/1944,5/25/1944,2,"Ambérieu-en-Bugey, Belley, Ain, Auvergne-Rhône-Alpes, France métropolitaine, 01500, France","AMBERIEU, France",45.9584309,5.3595099
FRANCE,AMBES,40.0,12/27/1940,8/4/1940,7,"Ambès, Bordeaux, Gironde, Nouvelle-Aquitaine, France métropolitaine, 33810, France","AMBES, France",45.0121558,-0.5291847
FRANCE,AMBLETEUSE,726.0,6/4/1944,6/5/1944,12,"Ambleteuse, Boulogne-sur-Mer, Pas-de-Calais, Hauts-de-France, France métropolitaine, 62164, France","AMBLETEUSE, France",50.8098639,1.607345
FRANCE,AMBRIERES,540.0,6/14/1944,7/31/1944,24,"Ambrières, Vitry-le-François, Marne, Grand Est, France métropolitaine, 51290, France","AMBRIERES, France",48.6338525,4.8373853
FRANCE,AMIENS,4147.0,10/26/1940,9/6/1943,160,"Amiens, Somme, Hauts-de-France, France métropolitaine, France","AMIENS, France",49.8941708,2.2956951
FRANCE,ANDRES,167.0,12/24/1943,7/8/1944,4,"Andres, Calais, Pas-de-Calais, Hauts-de-France, France métropolitaine, 62340, France","ANDRES, France",50.8639685,1.9141538
FRANCE,ANDRESSELLES,156.0,6/3/1944,6/3/1944,6,,"ANDRESSELLES, France",,
FRANCE,ANGERS,1724.0,5/28/1944,8/22/1940,23,"Angers, Maine-et-Loire, Pays de la Loire, France métropolitaine, France","ANGERS, France",47.4739884,-0.5515588
FRANCE,ANGOULEME,394.0,3/20/1944,8/14/1944,8,"Angoulême, Charente, Nouvelle-Aquitaine, France métropolitaine, 16000, France","ANGOULEME, France",45.6484505,0.1561947
FRANCE,ANIZY LE CHATEAU,477.0,6/28/1944,8/8/1944,10,"Anizy-le-Château, Anizy-le-Grand, Laon, Aisne, Hauts-de-France, France métropolitaine, 02320, France","ANIZY LE CHATEAU, France",49.5052374,3.4431557
FRANCE,ANNECY,306.0,11/11/1943,5/9/1944,8,"Annecy, Haute-Savoie, Auvergne-Rhône-Alpes, France métropolitaine, France","ANNECY, France",45.8992348,6.1288847
FRANCE,ANSE,36.0,8/28/1944,8/28/1944,2,"Anse, Villefranche-sur-Saône, Rhône, Auvergne-Rhône-Alpes, France métropolitaine, 69480, France","ANSE, France",45.9364662,4.7170072
FRANCE,ANTHEOR,1234.0,11/11/1943,9/16/1943,43,"Anthéor, Saint-Raphaël, Draguignan, Var, Provence-Alpes-Côte d'Azur, France métropolitaine, 83530, France","ANTHEOR, France",43.431563,6.8866682
FRANCE,ANVERS SUR OISE,72.0,8/15/1944,8/15/1944,2,,"ANVERS SUR OISE, France",,
FRANCE,APPEVILLE,82.0,8/17/1944,8/17/1944,2,"Appeville, Coutances, Manche, Normandie, France métropolitaine, 50500, France","APPEVILLE, France",49.3209654,-1.3432355
FRANCE,ARAD,23.0,1/4/1941,8/31/1941,21,"Arad, Chemin de Tanit, Juan-les-Pins, Antibes, Grasse, Alpes-Maritimes, Provence-Alpes-Côte d'Azur, France métropolitaine, 06160, France","ARAD, France",43.5713563,7.1171767
FRANCE,ARAMON,147.0,7/12/1944,8/15/1944,9,"Aramon, Nîmes, Gard, Occitanie, France métropolitaine, 30390, France","ARAMON, France",43.8908652,4.6810542
FRANCE,ARDOUVAL,442.0,7/20/1944,7/9/1944,8,"Ardouval, Dieppe, Seine-Maritime, Normandie, France métropolitaine, 76680, France","ARDOUVAL, France",49.7482745,1.2705511
FRANCE,ARDRES,93.0,3/2/1944,3/2/1944,3,"Ardres, Calais, Pas-de-Calais, Hauts-de-France, France métropolitaine, 62610, France","ARDRES, France",50.8536324,1.9786068
FRANCE,ARGENTAN,1773.0,10/20/1941,8/12/1944,51,"Argentan, Orne, Normandie, France métropolitaine, 61200, France","ARGENTAN, France",48.74289,-0.0223386
FRANCE,ARLES,499.0,6/25/1944,8/6/1944,11,"Arles, Bouches-du-Rhône, Provence-Alpes-Côte d'Azur, France métropolitaine, France","ARLES, France",43.6776223,4.6309653
FRANCE,ARMENTIERES,191.0,6/22/1944,8/13/1944,5,"Armentières, Lille, Nord, Hauts-de-France, France métropolitaine, 59280, France","ARMENTIERES, France",50.6867281,2.882169
FRANCE,ARQUES,10.0,10/12/1941,7/12/1941,2,"Arques, Saint-Omer, Pas-de-Calais, Hauts-de-France, France métropolitaine, 62510, France","ARQUES, France",50.7396639,2.3062068
FRANCE,ARQUES LA BATAILLE,65.0,8/30/1944,8/30/1944,5,"Arques-la-Bataille, Dieppe, Seine-Maritime, Normandie, France métropolitaine, 76880, France","ARQUES LA BATAILLE, France",49.8806133,1.126523
FRANCE,ARRAS,646.0,12/6/1940,9/6/1940,13,"Arras, Pas-de-Calais, Hauts-de-France, France métropolitaine, 62000, France","ARRAS, France",50.291048,2.7772211
FRANCE,ARROMANCHES,1098.0,6/6/1944,6/6/1944,24,"Arromanches-les-Bains, Bayeux, Calvados, Normandie, France métropolitaine, 14117, France","ARROMANCHES, France",49.3369603,-0.6221294
FRANCE,ASNELLES SUR MER,288.0,6/6/1944,6/6/1944,15,"Route d'Asnelles, Les Loges, Ver-sur-Mer, Bayeux, Calvados, Normandie, France métropolitaine, 14114, France","ASNELLES SUR MER, France",49.3405607,-0.5354249
FRANCE,ATHIES,171.0,7/23/1944,7/23/1944,3,"Athies, Arras, Pas-de-Calais, Hauts-de-France, France métropolitaine, 62223, France","ATHIES, France",50.3014047,2.8373876
FRANCE,AU FEVRE,505.0,5/31/1944,5/31/1944,2,"Hamel au Fèvre, Gavray, Gavray-sur-Sienne, Coutances, Manche, Normandie, France métropolitaine, 50450, France","AU FEVRE, France",48.8914142,-1.314038
FRANCE,AUBE SUR RISLE,90.0,6/25/1944,6/25/1944,3,"AUBE - La Hutterie, D 926, La Hutterie, Aube, Mortagne-au-Perche, Orne, Normandie, France métropolitaine, 61270, France","AUBE SUR RISLE, France",48.73765,0.530502
FRANCE,AUBERGENVILLE,24.0,8/9/1944,8/9/1944,2,"Aubergenville, Mantes-la-Jolie, Yvelines, Île-de-France, France métropolitaine, 78410, France","AUBERGENVILLE, France",48.9591392,1.8554319
FRANCE,AUBIGNE RACAN,306.0,5/6/1944,5/6/1944,2,"Aubigné-Racan, La Flèche, Sarthe, Pays de la Loire, France métropolitaine, 72800, France","AUBIGNE RACAN, France",47.690447,0.2671194
FRANCE,AUBIGNY,18.0,8/9/1944,8/9/1944,3,"Aubigny, Amiens, Somme, Hauts-de-France, France métropolitaine, 80800, France","AUBIGNY, France",49.8999821,2.4833605
FRANCE,AUCHEL,156.0,1/24/1944,1/24/1944,3,"Auchel, Béthune, Pas-de-Calais, Hauts-de-France, France métropolitaine, 62260, France","AUCHEL, France",50.5037492,2.4682059
FRANCE,AUDERVILLE,420.0,6/29/1944,6/29/1944,6,"Auderville, La Hague, Cherbourg, Manche, Normandie, France métropolitaine, 50440, France","AUDERVILLE, France",49.7135519,-1.9303484
FRANCE,AUDINGHEM,899.0,1/14/1944,12/24/1943,21,,"AUDINGHEM, France",,
FRANCE,AUDINGTHUN,308.0,12/21/1943,5/8/1944,11,,"AUDINGTHUN, France",,
FRANCE,AULNOIS,64.0,8/2/1944,8/2/1944,3,"Aulnois, Neufchâteau, Vosges, Grand Est, France métropolitaine, 88300, France","AULNOIS, France",48.2571719,5.7844945
FRANCE,AULNOYE,3665.0,1/13/1943,7/18/1944,24,"Aulnoye-Aymeries, Avesnes-sur-Helpe, Nord, Hauts-de-France, France métropolitaine, 59620, France","AULNOYE, France",50.2002502,3.8336383
FRANCE,AULT,865.0,2/11/1944,6/4/1944,26,"Ault, Abbeville, Somme, Hauts-de-France, France métropolitaine, 80460, France","AULT, France",50.1015635,1.4473006
FRANCE,AUNAY,1515.0,6/11/1944,6/14/1944,9,"Aunay, Vaux-sur-Aure, Bayeux, Calvados, Normandie, France métropolitaine, 14400, France","AUNAY, France",49.3102945,-0.6900161
FRANCE,AUTHEUX,263.0,6/19/1944,6/21/1944,22,"Autheux, Amiens, Somme, Hauts-de-France, France métropolitaine, 80600, France","AUTHEUX, France",50.14258,2.22862
FRANCE,AUTHIE,504.0,12/24/1943,2/13/1944,12,"Authie, Caen, Calvados, Normandie, France métropolitaine, 14280, France","AUTHIE, France",49.2065511,-0.4316398
FRANCE,AUXERRE,174.0,5/11/1944,7/17/1944,7,"Auxerre, Yonne, Bourgogne-Franche-Comté, France métropolitaine, France","AUXERRE, France",47.7961287,3.570579
FRANCE,AUXI LE CHATEAU,16.0,8/14/1944,8/14/1944,2,"Auxi-le-Château, Arras, Pas-de-Calais, Hauts-de-France, France métropolitaine, 62390, France","AUXI LE CHATEAU, France",50.2314908,2.1177614
FRANCE,AVESNES,207.0,8/3/1944,8/8/1944,9,"Avesnes, Montreuil-sur-Mer, Pas-de-Calais, Hauts-de-France, France métropolitaine, 62650, France","AVESNES, France",50.5495906,1.9721295
FRANCE,AVIGNON,2319.0,5/27/1944,8/8/1944,47,"Avignon, Vaucluse, Provence-Alpes-Côte d'Azur, France métropolitaine, France","AVIGNON, France",43.9492493,4.8059012
FRANCE,AVORD,2577.0,2/5/1944,6/4/1944,42,"Avord, Bourges, Cher, Centre-Val de Loire, France métropolitaine, 18520, France","AVORD, France",47.0353206,2.6511406
FRANCE,AVRANCHES,361.0,11/22/1940,9/3/1941,17,"Avranches, Manche, Normandie, France métropolitaine, 50300, France","AVRANCHES, France",48.6862085,-1.3579476
FRANCE,AZEVILLE,120.0,6/5/1944,6/5/1944,6,"Azeville, Cherbourg, Manche, Normandie, France métropolitaine, 50310, France","AZEVILLE, France",49.4591086,-1.3134907
FRANCE,BACHIMONT,607.0,6/18/1944,6/24/1944,34,"Bachimont, Buire-au-Bois, Arras, Pas-de-Calais, Hauts-de-France, France métropolitaine, 62390, France","BACHIMONT, France",50.2714779,2.1435415
FRANCE,BAGNOLES DE L ORNE,129.0,6/24/1944,6/24/1944,3,"Bagnoles-de-l'Orne, Bagnoles-de-l'Orne-Normandie, Alençon, Orne, Normandie, France métropolitaine, 61140, France","BAGNOLES DE L ORNE, France",48.5539388,-0.4229186
FRANCE,BALARUC LES BAINS,276.0,6/25/1944,6/25/1944,4,"Balaruc-les-Bains, Montpellier, Hérault, Occitanie, France métropolitaine, 34540, France","BALARUC LES BAINS, France",43.4444987,3.679545
FRANCE,BALLEROY,92.0,6/7/1944,6/7/1944,2,"Balleroy, Balleroy-sur-Drôme, Bayeux, Calvados, Normandie, France métropolitaine, 14490, France","BALLEROY, France",49.1808651,-0.8369977
FRANCE,BAMIERES,647.0,6/20/1944,6/24/1944,6,"Hameau de Bamières, Mouriez, Montreuil-sur-Mer, Pas-de-Calais, Hauts-de-France, France métropolitaine, 62140, France","BAMIERES, France",50.3424675,1.9743928
FRANCE,BARENTIN,22.0,7/8/1944,7/8/1944,1,"Barentin, Rouen, Seine-Maritime, Normandie, France métropolitaine, 76360, France","BARENTIN, France",49.5459699,0.9522586
FRANCE,BARFLEUR,921.0,4/27/1944,6/7/1944,26,"Barfleur, Cherbourg, Manche, Normandie, France métropolitaine, 50760, France","BARFLEUR, France",49.6706815,-1.2644272
FRANCE,BARISIS,210.0,8/28/1944,8/28/1944,3,"Barisis-aux-Bois, Laon, Aisne, Hauts-de-France, France métropolitaine, 02700, France","BARISIS, France",49.5782374,3.3299468
FRANCE,BARLIN,24.0,6/20/1944,6/20/1944,3,"Barlin, Béthune, Pas-de-Calais, Hauts-de-France, France métropolitaine, 62620, France","BARLIN, France",50.4568365,2.6174771
FRANCE,BARQUES,165.0,4/20/1944,4/20/1944,3,"Barques, Marques, Dieppe, Seine-Maritime, Normandie, France métropolitaine, 76390, France","BARQUES, France",49.7702272,1.6891373
FRANCE,BASSENS,495.0,8/5/1944,8/5/1944,2,"Bassens, Bordeaux, Gironde, Nouvelle-Aquitaine, France métropolitaine, 33530, France","BASSENS, France",44.9015003,-0.5163222
FRANCE,BAULON,36.0,6/11/1944,6/11/1944,3,"Baulon, Redon, Ille-et-Vilaine, Bretagne, France métropolitaine, 35580, France","BAULON, France",47.9854372,-1.9315829
FRANCE,BAYE DE LA SEINE,1404.0,8/13/1944,8/13/1944,62,,"BAYE DE LA SEINE, France",,
FRANCE,BAYEUX,96.0,6/10/1944,6/10/1944,2,"Bayeux, Calvados, Normandie, France métropolitaine, 14400, France","BAYEUX, France",49.2764624,-0.7024738
FRANCE,BAYON,36.0,5/23/1944,5/23/1944,2,"Bayon, Lunéville, Meurthe-et-Moselle, Grand Est, France métropolitaine, 54290, France","BAYON, France",48.4773983,6.3147222
FRANCE,BDIS DE LA JUSTICE,162.0,4/20/1944,4/20/1944,3,,"BDIS DE LA JUSTICE, France",,
FRANCE,BEAU GUILLOT,52.0,6/6/1944,6/6/1944,2,"Le Beau Guillot, Orville, Pithiviers, Loiret, Centre-Val de Loire, France métropolitaine, 45390, France","BEAU GUILLOT, France",48.2336242,2.4698557
FRANCE,BEAUGENCY,192.0,6/14/1944,7/9/1944,5,"Beaugency, Orléans, Loiret, Centre-Val de Loire, France métropolitaine, 45190, France","BEAUGENCY, France",47.7778775,1.6311944
FRANCE,BEAUM0NT SUR OISE,1426.0,4/10/1944,9/9/1943,37,,"BEAUM0NT SUR OISE, France",,
FRANCE,BEAUMDNT LE ROGER,2840.0,3/23/1944,9/9/1943,113,,"BEAUMDNT LE ROGER, France",,
FRANCE,BEAUMETZ,615.0,5/24/1944,7/6/1944,15,"Beaumetz, Amiens, Somme, Hauts-de-France, France métropolitaine, 80370, France","BEAUMETZ, France",50.14095,2.11965
FRANCE,BEAUMONT LE HARENG,122.0,2/6/1944,4/23/1944,4,"Beaumont-le-Hareng, Rouen, Seine-Maritime, Normandie, France métropolitaine, 76850, France","BEAUMONT LE HARENG, France",49.6723789,1.2229978
FRANCE,BEAUMONT LE ROGER,467.0,5/11/1944,5/24/1944,4,"Beaumont-le-Roger, Bernay, Eure, Normandie, France métropolitaine, 27170, France","BEAUMONT LE ROGER, France",49.078161,0.7768341
FRANCE,BEAUMONT SUR OISE,354.0,5/26/1944,8/6/1944,6,"Beaumont-sur-Oise, Pontoise, Val-d'Oise, Île-de-France, France métropolitaine, 95260, France","BEAUMONT SUR OISE, France",49.1419322,2.2849324
FRANCE,BEAUMONTEL,2.0,8/17/1944,8/17/1944,2,"Beaumontel, Bernay, Eure, Normandie, France métropolitaine, 27170, France","BEAUMONTEL, France",49.0886559,0.7649572
FRANCE,BEAUTOR,114.0,8/2/1944,8/2/1944,5,"Beautor, Laon, Aisne, Hauts-de-France, France métropolitaine, 02800, France","BEAUTOR, France",49.6516667,3.3455556
FRANCE,BEAUVAIS,3704.0,10/24/1943,9/9/1943,141,"Beauvais, Oise, Hauts-de-France, France métropolitaine, 60000, France","BEAUVAIS, France",49.4300997,2.0823355
FRANCE,BEAUVOIR,3630.0,1/21/1944,7/2/1944,54,"Beauvoir, Clermont, Oise, Hauts-de-France, France métropolitaine, 60120, France","BEAUVOIR, France",49.6030535,2.3269073
FRANCE,BEC D AMBES,453.0,8/4/1944,8/4/1944,2,"Bec d'Ambès, Ambès, Bordeaux, Gironde, Nouvelle-Aquitaine, France métropolitaine, 33810, France","BEC D AMBES, France",45.0345991,-0.5960273
FRANCE,BEHEN,884.0,3/5/1944,5/28/1944,26,"Béhen, Abbeville, Somme, Hauts-de-France, France métropolitaine, 80870, France","BEHEN, France",50.0569745,1.7553188
FRANCE,BEINTQUES,431.0,6/23/1944,6/23/1944,2,,"BEINTQUES, France",,
FRANCE,BELFORT,753.0,5/11/1944,8/11/1944,17,"Belfort, Territoire-de-Belfort, Bourgogne-Franche-Comté, France métropolitaine, 90000, France","BELFORT, France",47.6379599,6.8628942
FRANCE,BELLE CROIS LES BRUY,93.0,6/24/1944,6/24/1944,3,,"BELLE CROIS LES BRUY, France",,
FRANCE,BELLE CROIX,90.0,6/23/1944,6/23/1944,6,"Belle-Croix, Dompierre-sur-Mer, La Rochelle, Charente-Maritime, Nouvelle-Aquitaine, France métropolitaine, 17139, France","BELLE CROIX, France",46.1800525,-1.0480709
FRANCE,BELLEVUE,438.0,4/27/1944,5/8/1944,9,"Bellevue, Rue Dumont d'Urville, Les Balysis, Bellevue, Meudon, Boulogne-Billancourt, Hauts-de-Seine, France métropolitaine, 92190, France","BELLEVUE, France",48.819216,2.2290793
FRANCE,BELLEY,1105.0,12/27/1944,8/3/1944,48,"Belley, Ain, Auvergne-Rhône-Alpes, France métropolitaine, 01300, France","BELLEY, France",45.760758,5.6861466
FRANCE,BELMESNIL,186.0,1/14/1944,1/14/1944,3,"Belmesnil, Dieppe, Seine-Maritime, Normandie, France métropolitaine, 76590, France","BELMESNIL, France",49.7690653,1.048267
FRANCE,BENAT CAP,141.0,8/11/1944,8/11/1944,6,"Domaine de Cap Benat, Bormes-les-Mimosas, Toulon, Var, Provence-Alpes-Côte d'Azur, France métropolitaine, 83230, France","BENAT CAP, France",43.0959652,6.3588899
FRANCE,BENERVILLE,1297.0,4/23/1944,6/6/1944,34,"Benerville-sur-Mer, Lisieux, Calvados, Normandie, France métropolitaine, 14910, France","BENERVILLE, France",49.3427767,0.0371362
FRANCE,BENNECOURT,22.0,5/31/1944,5/31/1944,2,"Bennecourt, Mantes-la-Jolie, Yvelines, Île-de-France, France métropolitaine, 78270, France","BENNECOURT, France",49.0398776,1.5617924
FRANCE,BERCK SUR MER,4480.0,10/28/1940,9/4/1940,135,"Aérodrome de Berck-sur-Mer, Route de Merlimont, Berck, Montreuil-sur-Mer, Pas-de-Calais, Hauts-de-France, France métropolitaine, 62600, France","BERCK SUR MER, France",50.4248731,1.5952889
FRANCE,BERGERAC,356.0,3/18/1944,3/5/1944,14,"Bergerac, Dordogne, Nouvelle-Aquitaine, France métropolitaine, 24100, France","BERGERAC, France",44.8534568,0.487531
FRANCE,BERGUENEUSE,303.0,8/31/1944,8/31/1944,4,"Bergueneuse, Arras, Pas-de-Calais, Hauts-de-France, France métropolitaine, 62134, France","BERGUENEUSE, France",50.4686059,2.2535007
FRANCE,BERNAY,802.0,3/6/1944,8/2/1944,37,"Bernay, Eure, Normandie, France métropolitaine, 27300, France","BERNAY, France",49.0902278,0.5989157
FRANCE,BERNEVAL LE GRAND,1084.0,3/3/1944,6/24/1944,9,"Berneval-le-Grand, Petit-Caux, Dieppe, Seine-Maritime, Normandie, France métropolitaine, 76370, France","BERNEVAL LE GRAND, France",49.9572664,1.1888108
FRANCE,BERTREVILLE,672.0,7/6/1944,8/1/1944,18,"Bertreville, Dieppe, Seine-Maritime, Normandie, France métropolitaine, 76450, France","BERTREVILLE, France",49.7673564,0.5801703
FRANCE,BESIERS,378.0,6/21/1944,7/5/1944,12,"Béziers, Hérault, Occitanie, France métropolitaine, 34500, France","BESIERS, France",43.3426562,3.2131307
FRANCE,BETHUNE,456.0,11/14/1940,9/26/1941,15,"Béthune, Pas-de-Calais, Hauts-de-France, France métropolitaine, 62400, France","BETHUNE, France",50.5309351,2.6389115
FRANCE,BEUVRY,198.0,2/5/1944,8/5/1944,9,"Beuvry, Béthune, Pas-de-Calais, Hauts-de-France, France métropolitaine, 62660, France","BEUVRY, France",50.5337191,2.6864794
FRANCE,BIARRITZ,240.0,3/27/1944,3/27/1944,6,"Biarritz, Bayonne, Pyrénées-Atlantiques, Nouvelle-Aquitaine, France métropolitaine, 64200, France","BIARRITZ, France",43.4711437,-1.5527266
FRANCE,BIENNAIS,144.0,6/27/1944,6/27/1944,9,"Biennais, Étaimpuis, Dieppe, Seine-Maritime, Normandie, France métropolitaine, 76850, France","BIENNAIS, France",49.6422846,1.1594975
FRANCE,BIENTQUES,74.0,6/23/1944,6/23/1944,2,"Bientques, Pihem, Saint-Omer, Pas-de-Calais, Hauts-de-France, France métropolitaine, 62570, France","BIENTQUES, France",50.6735748,2.2009575
FRANCE,BITCHE,254.0,10/12/1944,10/12/1944,6,"Bitche, Sarreguemines, Moselle, Grand Est, France métropolitaine, 57230, France","BITCHE, France",49.0508729,7.4254577
FRANCE,BLAINVILLE,854.0,4/27/1944,6/28/1944,12,"Blainville, Ponchon, Beauvais, Oise, Hauts-de-France, France métropolitaine, 60430, France","BLAINVILLE, France",49.3395358,2.1947567
FRANCE,BLANC MISSERON,314.0,5/1/1944,5/7/1944,16,"Blanc Misseron, Crespin, Valenciennes, Nord, Hauts-de-France, France métropolitaine, 59154, France","BLANC MISSERON, France",50.4044564,3.6655605
FRANCE,BLANC PIGNON FERME,366.0,7/6/1944,7/6/1944,12,,"BLANC PIGNON FERME, France",,
FRANCE,BLANDERMONT,393.0,6/20/1944,7/2/1944,24,,"BLANDERMONT, France",,
FRANCE,BLAYE,485.0,8/14/1940,8/5/1944,5,"Blaye, Gironde, Nouvelle-Aquitaine, France métropolitaine, 33390, France","BLAYE, France",45.1271231,-0.6635964
FRANCE,BLOIS,418.0,6/11/1944,8/7/1944,9,"Blois, Loir-et-Cher, Centre-Val de Loire, France métropolitaine, 41000, France","BLOIS, France",47.5876861,1.3337639
FRANCE,BOIR,561.0,6/2/1944,6/2/1944,9,"Le Boir, L'Arche Neuve, Bazouges-sur-le-Loir, La Flèche, Sarthe, Pays de la Loire, France métropolitaine, 72200, France","BOIR, France",47.6957714,-0.1199667
FRANCE,BOIS D ENTER,177.0,5/1/1944,5/1/1944,3,,"BOIS D ENTER, France",,
FRANCE,BOIS DE COQERAIS,444.0,1/21/1944,4/20/1944,9,,"BOIS DE COQERAIS, France",,
FRANCE,BOIS DE LA HAIE,207.0,7/17/1944,7/17/1944,3,"Bois de la Haie, Laneuville-sur-Meuse, Verdun, Meuse, Grand Est, France métropolitaine, 55700, France","BOIS DE LA HAIE, France",49.4702876,5.1394925
FRANCE,BOIS DE LA HAYE,88.0,8/9/1944,8/9/1944,2,"Bois de la Haye, La Fosse Radoult, Saint-Germain-de-Tallevende-la-Lande-Vaumont, Vire Normandie, Vire, Calvados, Normandie, France métropolitaine, 14500, France","BOIS DE LA HAYE, France",48.7986301,-0.9656409
FRANCE,BOIS DE LICQUES,3812.0,6/18/1941,8/6/1944,14,"Bois de Belbert, Licques, Calais, Pas-de-Calais, Hauts-de-France, France métropolitaine, 62850, France","BOIS DE LICQUES, France",50.7893342,1.9186
FRANCE,BOIS DES HUITPUES,593.0,1/21/1944,4/20/1944,6,,"BOIS DES HUITPUES, France",,
FRANCE,BOIS DES JARDINS,221.0,7/15/1944,7/15/1944,2,"Lottissement des Bois Jardins, Les Bois Jardins, Vineuil, Blois, Loir-et-Cher, Centre-Val de Loire, France métropolitaine, 41350, France","BOIS DES JARDINS, France",47.5975805,1.3944605
FRANCE,BOIS DIEU,72.0,8/28/1944,8/28/1944,2,"Bois Dieu, Treteau, Vichy, Allier, Auvergne-Rhône-Alpes, France métropolitaine, 03220, France","BOIS DIEU, France",46.3761078,3.5082092
FRANCE,BOISSEI LA LONDE,192.0,7/16/1944,7/28/1944,10,"Mairie de Boissei-la-Lande, Route de La Londe, Boissei-la-Lande, Alençon, Orne, Normandie, France métropolitaine, 61570, France","BOISSEI LA LONDE, France",48.6825295,0.0621656
FRANCE,BOLBEC,108.0,8/26/1944,8/26/1944,6,"Bolbec, Le Havre, Seine-Maritime, Normandie, France métropolitaine, 76210, France","BOLBEC, France",49.5739091,0.4742448
FRANCE,BONNETOT,377.0,6/24/1944,6/24/1944,1,"Ferme Bonnetot, Grosville, Cherbourg, Manche, Normandie, France métropolitaine, 50340, France","BONNETOT, France",49.5016566,-1.7420948
FRANCE,BONNEVAL,48.0,7/12/1944,7/12/1944,2,"Bonneval, Châteaudun, Eure-et-Loir, Centre-Val de Loire, France métropolitaine, 28800, France","BONNEVAL, France",48.181527,1.3853323
FRANCE,BONNIERES SUR SEINE,2141.0,1/14/1944,5/9/1944,64,"Bonnières-sur-Seine, Mantes-la-Jolie, Yvelines, Île-de-France, France métropolitaine, 78270, France","BONNIERES SUR SEINE, France",49.037481,1.5809775
FRANCE,BORDE1UX,9.0,10/10/1941,10/10/1941,2,,"BORDE1UX, France",,
FRANCE,BORDEAUX,6924.0,1/26/1943,9/7/1942,172,"Bordeaux, Gironde, Nouvelle-Aquitaine, France métropolitaine, France","BORDEAUX, France",44.841225,-0.5800364
FRANCE,BOUCHEMAINE,168.0,7/9/1944,8/1/1944,3,"Bouchemaine, Angers, Maine-et-Loire, Pays de la Loire, France métropolitaine, 49080, France","BOUCHEMAINE, France",47.4234644,-0.6085356
FRANCE,BOULOGNE,4278.0,1/10/1942,9/8/1940,329,"Boulogne, Essarts-en-Bocage, La Roche-sur-Yon, Vendée, Pays de la Loire, France métropolitaine, 85140, France","BOULOGNE, France",46.7947224,-1.3210389
FRANCE,BOULOGNE SUR GESSE,9320.0,10/15/1941,9/9/1943,155,"Boulogne-sur-Gesse, Saint-Gaudens, Haute-Garonne, Occitanie, France métropolitaine, 31350, France","BOULOGNE SUR GESSE, France",43.2908,0.646418
FRANCE,BOURG ST ANDEOL,212.0,8/15/1944,8/17/1944,5,"Bourg-Saint-Andéol, Privas, Ardèche, Auvergne-Rhône-Alpes, France métropolitaine, 07700, France","BOURG ST ANDEOL, France",44.3707629,4.6457565
FRANCE,BOURGES,2130.0,11/1/1940,8/24/1940,48,"Bourges, Cher, Centre-Val de Loire, France métropolitaine, 18000, France","BOURGES, France",47.0811658,2.399125
FRANCE,BOURRON,288.0,8/18/1944,8/18/1944,12,"Bourron, Genouillé, Rochefort, Charente-Maritime, Nouvelle-Aquitaine, France métropolitaine, 17430, France","BOURRON, France",46.0249471,-0.7556438
FRANCE,BOURROU,58.0,8/7/1944,8/7/1944,2,"Bourrou, Périgueux, Dordogne, Nouvelle-Aquitaine, France métropolitaine, 24110, France","BOURROU, France",45.044868,0.5983678
FRANCE,BOURTH,480.0,7/11/1944,8/1/1944,18,"Bourth, Bernay, Eure, Normandie, France métropolitaine, 27580, France","BOURTH, France",48.7700067,0.8061501
FRANCE,BRANOUX,12.0,8/25/1944,8/25/1944,2,"Branoux-les-Taillades, Alès, Gard, Occitanie, France métropolitaine, 30110, France","BRANOUX, France",44.2196,3.99124
FRANCE,BREIL,68.0,9/26/1944,9/26/1944,2,"Breil, Noyant-Villages, Saumur, Maine-et-Loire, Pays de la Loire, France métropolitaine, 49490, France","BREIL, France",47.4728208,0.1665487
FRANCE,BREMONT,203.0,7/12/1944,7/12/1944,2,"Bremont, Outremécourt, Chaumont, Haute-Marne, Grand Est, France métropolitaine, 52150, France","BREMONT, France",48.2125398,5.6765386
FRANCE,BRENNES,1661.0,6/27/1944,7/5/1944,7,"Brennes, Langres, Haute-Marne, Grand Est, France métropolitaine, 52200, France","BRENNES, France",47.7965438,5.278637
FRANCE,BREST,25433.0,1/10/1941,9/7/1940,968,"Brest, Finistère, Bretagne, France métropolitaine, 29200, France","BREST, France",48.3905283,-4.4860088
FRANCE,BRETIGNY,1860.0,5/25/1944,8/8/1944,55,"Bretigny, Dijon, Côte-d'Or, Bourgogne-Franche-Comté, France métropolitaine, 21490, France","BRETIGNY, France",47.3984947,5.0999025
FRANCE,BRETTEVILLE,388.0,6/10/1944,7/7/1944,13,"Bretteville, Cherbourg, Manche, Normandie, France métropolitaine, 50110, France","BRETTEVILLE, France",49.6557634,-1.5199361
FRANCE,BRETTEVILLE SURLAIZ,957.0,8/8/1944,8/8/1944,30,,"BRETTEVILLE SURLAIZ, France",,
FRANCE,BRIE COMTE ROBERT,17.0,6/22/1944,6/22/1944,1,"Brie-Comte-Robert, Torcy, Seine-et-Marne, Île-de-France, France métropolitaine, 77170, France","BRIE COMTE ROBERT, France",48.6904522,2.6166737
FRANCE,BRIENNON,96.0,8/10/1944,8/10/1944,3,"Briennon, Roanne, Loire, Auvergne-Rhône-Alpes, France métropolitaine, 42720, France","BRIENNON, France",46.1486343,4.0867174
FRANCE,BRIOLLAY,94.0,8/5/1944,8/5/1944,2,"Briollay, Angers, Maine-et-Loire, Pays de la Loire, France métropolitaine, 49125, France","BRIOLLAY, France",47.5654856,-0.5073254
FRANCE,BRIONNE,263.0,7/8/1944,8/17/1944,11,"Brionne, Bernay, Eure, Normandie, France métropolitaine, 27800, France","BRIONNE, France",49.1948931,0.7181025
FRANCE,BRIOUZE,198.0,6/7/1944,8/12/1944,6,"Briouze, Argentan, Orne, Normandie, France métropolitaine, 61220, France","BRIOUZE, France",48.6996275,-0.3670932
FRANCE,BROGLIE,92.0,8/13/1944,8/13/1944,2,"Broglie, Bernay, Eure, Normandie, France métropolitaine, 27270, France","BROGLIE, France",49.0087429,0.5280377
FRANCE,BROMBOS,78.0,7/9/1944,7/9/1944,3,"Brombos, Beauvais, Oise, Hauts-de-France, France métropolitaine, 60210, France","BROMBOS, France",49.6456377,1.8865335
FRANCE,BRUGES,213.0,5/28/1944,5/28/1944,3,"Bruges-Capbis-Mifaget, Pau, Pyrénées-Atlantiques, Nouvelle-Aquitaine, France métropolitaine, 64800, France","BRUGES, France",43.1269544,-0.3037796
FRANCE,BRUZ,354.0,5/7/1944,7/19/1944,7,"Bruz, Rennes, Ille-et-Vilaine, Bretagne, France métropolitaine, 35170, France","BRUZ, France",48.0245814,-1.7471629
FRANCE,BRYAS,58.0,8/17/1943,8/17/1943,2,"Brias, Arras, Pas-de-Calais, Hauts-de-France, France métropolitaine, 62130, France","BRYAS, France",50.409802,2.3783026
FRANCE,BUCHY,90.0,1/14/1944,1/14/1944,3,"Buchy, Rouen, Seine-Maritime, Normandie, France métropolitaine, 76750, France","BUCHY, France",49.5843382,1.3583539
FRANCE,BUCY LES PIERREPONT,119.0,8/27/1944,8/27/1944,5,"Bucy-lès-Pierrepont, Laon, Aisne, Hauts-de-France, France métropolitaine, 02350, France","BUCY LES PIERREPONT, France",49.6462,3.90077
FRANCE,BUISSON LE,447.0,7/12/1944,7/27/1944,7,"Le Buisson, Vitry-le-François, Marne, Grand Est, France métropolitaine, 51300, France","BUISSON LE, France",48.761261,4.7507809
FRANCE,BURGES,124.0,5/28/1944,5/28/1944,2,"Burges, Brassac, Foix, Ariège, Occitanie, France métropolitaine, 09000, France","BURGES, France",42.9430976,1.5173593
FRANCE,BUSIGNY,430.0,4/30/1944,5/2/1944,8,"Busigny, Cambrai, Nord, Hauts-de-France, France métropolitaine, 59137, France","BUSIGNY, France",50.0350792,3.4692426
FRANCE,CABOURG,2.0,9/11/1941,9/11/1941,1,"Cabourg, Lisieux, Calvados, Normandie, France métropolitaine, 14390, France","CABOURG, France",49.2934373,-0.1155085
FRANCE,CAEN,10706.0,1/21/1943,8/26/1943,210,"Caen, Calvados, Normandie, France métropolitaine, 14000, France","CAEN, France",49.1813403,-0.3635615
FRANCE,CALAIS,13272.0,1/16/1941,9/9/1940,305,"Calais, Pas-de-Calais, Hauts-de-France, France métropolitaine, 62100, France","CALAIS, France",50.9524769,1.8538446
FRANCE,CAMARET,54.0,8/14/1944,8/14/1944,3,"Camaret-sur-Aigues, Carpentras, Vaucluse, Provence-Alpes-Côte d'Azur, France métropolitaine, 84850, France","CAMARET, France",44.1650029,4.8736859
FRANCE,CAMBES,57.0,7/6/1944,7/6/1944,3,"Cambes, Bordeaux, Gironde, Nouvelle-Aquitaine, France métropolitaine, 33880, France","CAMBES, France",44.7320158,-0.4628666
FRANCE,CAMBRAI,2989.0,10/27/1940,8/11/1944,90,"Cambrai, Nord, Hauts-de-France, France métropolitaine, 59400, France","CAMBRAI, France",50.1757546,3.2346145
FRANCE,CAMBREMER,62.0,6/13/1944,6/13/1944,2,"Cambremer, Lisieux, Calvados, Normandie, France métropolitaine, 14340, France","CAMBREMER, France",49.1490706,0.059735
FRANCE,CAMIERS,192.0,6/2/1944,6/2/1944,3,"Camiers, Montreuil-sur-Mer, Pas-de-Calais, Hauts-de-France, France métropolitaine, 62176, France","CAMIERS, France",50.5638,1.61441
FRANCE,CAMPAGNE LES HESDIN,528.0,12/24/1943,6/2/1944,11,"Campagne-lès-Hesdin, Montreuil-sur-Mer, Pas-de-Calais, Hauts-de-France, France métropolitaine, 62870, France","CAMPAGNE LES HESDIN, France",50.397913,1.8774929
FRANCE,CANNES,481.0,11/11/1943,8/12/1944,12,"Cannes, Grasse, Alpes-Maritimes, Provence-Alpes-Côte d'Azur, France métropolitaine, France","CANNES, France",43.5515198,7.0134418
FRANCE,CAP ANTIBES,20.0,8/14/1944,8/14/1944,2,"Cap d'Antibes, Antibes, Grasse, Alpes-Maritimes, Provence-Alpes-Côte d'Azur, France métropolitaine, 06160, France","CAP ANTIBES, France",43.5548344,7.1284027
FRANCE,CAP D ALPRECH,375.0,9/8/1943,9/8/1943,5,"Cap d'Alprech, Le Portel, Boulogne-sur-Mer, Pas-de-Calais, Hauts-de-France, France métropolitaine, 62480, France","CAP D ALPRECH, France",50.6994206,1.5621185
FRANCE,CAP GRIS NEZ,4183.0,10/1/1940,9/9/1940,74,"Cap Gris-Nez, Route du Cap, Framezelle, Hameau du Gris-Nez, Audinghen, Boulogne-sur-Mer, Pas-de-Calais, Hauts-de-France, France métropolitaine, 62179, France","CAP GRIS NEZ, France",50.8696997,1.584847
FRANCE,CAP NEGRE,72.0,8/12/1944,8/12/1944,3,"Cap Negre, Cap Nègre, Le Lavandou, Toulon, Var, Provence-Alpes-Côte d'Azur, France métropolitaine, 83980, France","CAP NEGRE, France",43.1520723,6.4364701
FRANCE,CAPE CAMARAT,102.0,8/14/1944,8/14/1944,6,"Cap Camarat, Ramatuelle, Draguignan, Var, Provence-Alpes-Côte d'Azur, France métropolitaine, 83350, France","CAPE CAMARAT, France",43.1999005,6.6811507
FRANCE,CAPE CEPET,522.0,8/13/1944,8/20/1944,48,"Cap Cépet, Saint-Mandrier-sur-Mer, Toulon, Var, Provence-Alpes-Côte d'Azur, France métropolitaine, 83430, France","CAPE CEPET, France",43.0676468,5.9465092
FRANCE,CARBIC,18.0,8/9/1944,8/9/1944,2,,"CARBIC, France",,
FRANCE,CARENTAN,153.0,6/5/1944,6/6/1944,5,"Carentan, Carentan-les-Marais, Saint-Lô, Manche, Normandie, France métropolitaine, 50500, France","CARENTAN, France",49.2947659,-1.2523119
FRANCE,CARNEVILLE,36.0,8/17/1944,8/17/1944,2,"Carneville, Cherbourg, Manche, Normandie, France métropolitaine, 50330, France","CARNEVILLE, France",49.6657068,-1.4507299
FRANCE,CARNOULES,256.0,5/25/1944,5/25/1944,3,"Carnoules, Brignoles, Var, Provence-Alpes-Côte d'Azur, France métropolitaine, 83660, France","CARNOULES, France",43.3024863,6.1898612
FRANCE,CAUDEBEC EN CAUX,195.0,8/1/1944,8/10/1944,13,"Caudebec-en-Caux, Rives-en-Seine, Rouen, Seine-Maritime, Normandie, France métropolitaine, 76490, France","CAUDEBEC EN CAUX, France",49.5328172,0.7339727
FRANCE,CAUDEBEC LES ELBEUF,111.0,8/2/1944,8/2/1944,3,"Caudebec-lès-Elbeuf, Rouen, Seine-Maritime, Normandie, France métropolitaine, 76320, France","CAUDEBEC LES ELBEUF, France",49.2814,1.02611
FRANCE,CAUMONT,1341.0,7/30/1944,7/30/1944,49,"Caumont, Montreuil-sur-Mer, Pas-de-Calais, Hauts-de-France, France métropolitaine, 62140, France","CAUMONT, France",50.2889755,2.030779
FRANCE,CAUVICOURT,2160.0,8/8/1944,8/8/1944,69,"Cauvicourt, Caen, Calvados, Normandie, France métropolitaine, 14190, France","CAUVICOURT, France",49.0479106,-0.2636305
FRANCE,CAVALAIRE,364.0,8/15/1944,8/15/1944,8,"Cavalaire-sur-Mer, Draguignan, Var, Provence-Alpes-Côte d'Azur, France métropolitaine, 83240, France","CAVALAIRE, France",43.1722952,6.531917
FRANCE,CAYEUX,52.0,1/4/1944,1/4/1944,2,"Monchy-Cayeux, Arras, Pas-de-Calais, Hauts-de-France, France métropolitaine, 62134, France","CAYEUX, France",50.4364591,2.2783415
FRANCE,CAZAUX,1173.0,3/27/1944,6/19/1944,24,"Cazaux, Foix, Ariège, Occitanie, France métropolitaine, 09120, France","CAZAUX, France",43.052569,1.5096567
FRANCE,CERISY LA SALLE,100.0,6/10/1944,6/10/1944,4,"Cerisy-la-Salle, Coutances, Manche, Normandie, France métropolitaine, 50210, France","CERISY LA SALLE, France",49.0257994,-1.2837743
FRANCE,CEZEMBRE,1847.0,8/13/1944,8/31/1944,13,"Résidence Cézembre, Avenue des Buttes de Coësmes, Bois Perrin, Beaulieu, Jeanne d'Arc - Longs Champs - Beaulieu, Quartiers Nord-Est, Rennes, Ille-et-Vilaine, Bretagne, France métropolitaine, 35042, France","CEZEMBRE, France",48.1237826,-1.6337992
FRANCE,CHALIGNY,285.0,9/12/1944,9/12/1944,5,"Chaligny, Nancy, Meurthe-et-Moselle, Grand Est, France métropolitaine, 54230, France","CHALIGNY, France",48.6256516,6.0803932
FRANCE,CHALONS,768.0,4/27/1944,7/9/1944,8,"Chalon, Vienne, Isère, Auvergne-Rhône-Alpes, France métropolitaine, 38122, France","CHALONS, France",45.4458331,4.9310763
FRANCE,CHAMBERY,180.0,5/26/1944,5/26/1944,2,"Chambéry, Savoie, Auvergne-Rhône-Alpes, France métropolitaine, 73000, France","CHAMBERY, France",45.5662672,5.9203636
FRANCE,CHAMBLY,621.0,4/20/1944,5/1/1944,4,"Chambly, Senlis, Oise, Hauts-de-France, France métropolitaine, 60230, France","CHAMBLY, France",49.1662774,2.2444986
FRANCE,CHAMBORIGAUD,70.0,8/19/1944,8/19/1944,2,"Chamborigaud, Alès, Gard, Occitanie, France métropolitaine, 30530, France","CHAMBORIGAUD, France",44.3041,3.97492
FRANCE,CHAMPAGNE LES MESDI,82.0,6/21/1944,6/21/1944,4,,"CHAMPAGNE LES MESDI, France",,
FRANCE,CHAPELINE NOTRE DAME,487.0,7/20/1944,8/8/1944,12,,"CHAPELINE NOTRE DAME, France",,
FRANCE,CHAPERY,117.0,8/29/1942,8/29/1942,3,,"CHAPERY, France",,
FRANCE,CHARLEVILLE,116.0,5/7/1944,5/7/1944,2,"Charleville, Épernay, Marne, Grand Est, France métropolitaine, 51120, France","CHARLEVILLE, France",48.813549,3.6664318
FRANCE,CHARLY SUR MARNE,120.0,8/1/1944,8/1/1944,3,"Charly-sur-Marne, Château-Thierry, Aisne, Hauts-de-France, France métropolitaine, 02310, France","CHARLY SUR MARNE, France",48.9754438,3.2843296
FRANCE,CHARNY,75.0,7/17/1944,7/17/1944,3,"Charny, Montbard, Côte-d'Or, Bourgogne-Franche-Comté, France métropolitaine, 21350, France","CHARNY, France",47.336881,4.4277949
FRANCE,CHARTRES,4046.0,1/12/1941,9/4/1940,107,"Chartres, Eure-et-Loir, Centre-Val de Loire, France métropolitaine, 28000, France","CHARTRES, France",48.4438601,1.4881434
FRANCE,CHATEAU BERNAPE,724.0,6/27/1944,8/2/1944,9,,"CHATEAU BERNAPE, France",,
FRANCE,CHATEAU DE BOSMELLET,52.0,2/15/1944,2/15/1944,2,,"CHATEAU DE BOSMELLET, France",,
FRANCE,CHATEAU DU LOIR,128.0,8/1/1944,8/1/1944,2,"Château-du-Loir, Montval-sur-Loir, La Flèche, Sarthe, Pays de la Loire, France métropolitaine, 72500, France","CHATEAU DU LOIR, France",47.6995205,0.4310474
FRANCE,CHATEAU THIERRY,54.0,6/16/1944,6/16/1944,1,"Château-Thierry, Aisne, Hauts-de-France, France métropolitaine, 02400, France","CHATEAU THIERRY, France",49.0457362,3.4027111
FRANCE,CHATEAUBRIANT,291.0,6/7/1944,6/8/1944,7,"Châteaubriant, Châteaubriant-Ancenis, Loire-Atlantique, Pays de la Loire, France métropolitaine, 44110, France","CHATEAUBRIANT, France",47.7194057,-1.3757282
FRANCE,CHATEAUDUN,5203.0,1/5/1944,9/15/1943,138,"Châteaudun, Eure-et-Loir, Centre-Val de Loire, France métropolitaine, 28200, France","CHATEAUDUN, France",48.0702298,1.3284948
FRANCE,CHATEAUROUX,623.0,2/5/1944,8/22/1940,13,"Châteauroux, Cité des Perrières, Châteauroux, Indre, Centre-Val de Loire, France métropolitaine, 36000, France","CHATEAUROUX, France",46.8203785,1.6770956
FRANCE,CHATEL,23.0,8/13/1944,8/13/1944,1,"Châtel, Thonon-les-Bains, Haute-Savoie, Auvergne-Rhône-Alpes, France métropolitaine, 74390, France","CHATEL, France",46.2671987,6.8412678
FRANCE,CHATELLERAULT,465.0,6/15/1944,6/15/1944,2,"Châtellerault, Vienne, Nouvelle-Aquitaine, France métropolitaine, 86100, France","CHATELLERAULT, France",46.8180047,0.545812
FRANCE,CHAULNES,84.0,7/20/1944,7/20/1944,2,"Chaulnes, Péronne, Somme, Hauts-de-France, France métropolitaine, 80320, France","CHAULNES, France",49.8185412,2.7993371
FRANCE,CHAUMONT,819.0,5/11/1944,8/2/1944,29,"Chaumont, Haute-Marne, Grand Est, France métropolitaine, 52000, France","CHAUMONT, France",48.1111324,5.1395849
FRANCE,CHAUNY,200.0,12/11/1940,8/9/1944,6,"Chauny, Laon, Aisne, Hauts-de-France, France métropolitaine, 02300, France","CHAUNY, France",49.6148945,3.2189506
FRANCE,CHEMSAY,14.0,7/6/1944,7/6/1944,2,,"CHEMSAY, France",,
FRANCE,CHERBOURG,1957.0,1/21/1943,9/8/1942,183,"Cherbourg, Manche, Normandie, France métropolitaine, France","CHERBOURG, France",49.5127198,-1.5755441
FRANCE,CHERISY,414.0,6/12/1944,8/13/1944,8,"Cherisy, Dreux, Eure-et-Loir, Centre-Val de Loire, France métropolitaine, 28500, France","CHERISY, France",48.746715,1.4233088
FRANCE,CHOCQUES,66.0,6/17/1941,9/22/1942,14,"Chocques, Béthune, Pas-de-Calais, Hauts-de-France, France métropolitaine, 62920, France","CHOCQUES, France",50.5391865,2.5696057
FRANCE,CINQ MARS LAPILE,550.0,6/15/1944,8/2/1944,10,,"CINQ MARS LAPILE, France",,
FRANCE,CITY TOT UNDER 6 TON,877.0,1/14/1945,8/3/1944,104,,"CITY TOT UNDER 6 TON, France",,
FRANCE,CLAMECY,87.0,7/17/1944,7/17/1944,3,"Clamecy, Soissons, Aisne, Hauts-de-France, France métropolitaine, 02880, France","CLAMECY, France",49.4286111,3.3619444
FRANCE,CLASTRES,789.0,6/14/1944,8/8/1944,24,"Clastres, Saint-Quentin, Aisne, Hauts-de-France, France métropolitaine, 02440, France","CLASTRES, France",49.7468,3.23125
FRANCE,CLERES,112.0,1/8/1945,8/1/1944,6,"Clères, Rouen, Seine-Maritime, Normandie, France métropolitaine, 76690, France","CLERES, France",49.5990674,1.1083851
FRANCE,CLERMONT,1497.0,3/10/1944,4/30/1944,28,"Clermont, Oise, Hauts-de-France, France métropolitaine, 60600, France","CLERMONT, France",49.3780921,2.4141907
FRANCE,CLOYES,362.0,6/14/1944,7/6/1944,6,"Cloyes-sur-le-Loir, Rue de Bouche d'Aigre, Cloyes-sur-le-Loir, Cloyes-les-Trois-Rivières, Châteaudun, Eure-et-Loir, Centre-Val de Loire, France métropolitaine, 28220, France","CLOYES, France",47.9921268,1.2434253
FRANCE,COCOVE,567.0,1/14/1944,4/20/1944,16,"Château de Cocove, Avenue de Cocove, Recques-sur-Hem, Calais, Pas-de-Calais, Hauts-de-France, France métropolitaine, 62890, France","COCOVE, France",50.8350915,2.0645825
FRANCE,COGNAC,2883.0,12/31/1943,9/16/1943,54,"Cognac, Charente, Nouvelle-Aquitaine, France métropolitaine, 16100, France","COGNAC, France",45.6931647,-0.3250175
FRANCE,COLMAR,0.0,9/7/1940,9/7/1940,1,"Colmar, Colmar-Ribeauvillé, Haut-Rhin, Grand Est, France métropolitaine, 68000, France","COLMAR, France",48.0777517,7.3579641
FRANCE,COLTAINVILLE,116.0,6/17/1944,6/17/1944,2,"Coltainville, Chartres, Eure-et-Loir, Centre-Val de Loire, France métropolitaine, 28300, France","COLTAINVILLE, France",48.4870815,1.5841967
FRANCE,COMBOURG,48.0,7/6/1944,7/6/1944,2,"Combourg, Saint-Malo, Ille-et-Vilaine, Bretagne, France métropolitaine, 35270, France","COMBOURG, France",48.4104391,-1.7500622
FRANCE,COMINES,42.0,3/24/1942,9/22/1942,8,"Comines, Lille, Nord, Hauts-de-France, France métropolitaine, 59560, France","COMINES, France",50.7653265,3.0066319
FRANCE,COMPIEGNE,489.0,8/26/1944,8/9/1944,12,"Compiègne, Oise, Hauts-de-France, France métropolitaine, 60200, France","COMPIEGNE, France",49.4179497,2.8263171
FRANCE,COMTANCES,321.0,6/6/1944,6/6/1944,21,,"COMTANCES, France",,
FRANCE,COMTESSE,96.0,7/9/1944,7/9/1944,3,"Comtesse, Les Mureaux, Mantes-la-Jolie, Yvelines, Île-de-France, France métropolitaine, 78130, France","COMTESSE, France",48.9726463,1.9158335
FRANCE,CONCHES,3835.0,12/25/1941,9/6/1943,135,"Conchez-de-Béarn, Pau, Pyrénées-Atlantiques, Nouvelle-Aquitaine, France métropolitaine, 64330, France","CONCHES, France",43.5450088,-0.1695404
FRANCE,CONDE,21.0,7/6/1944,7/6/1944,3,"Condé, Issoudun, Indre, Centre-Val de Loire, France métropolitaine, 36100, France","CONDE, France",46.8791315,1.9862669
FRANCE,CONDE SUR NOIREAU,1559.0,6/12/1944,6/7/1944,38,"Condé-sur-Noireau, Condé-en-Normandie, Vire, Calvados, Normandie, France métropolitaine, 14110, France","CONDE SUR NOIREAU, France",48.8490218,-0.5652166
FRANCE,CONDE SUR VIRE,115.0,6/30/1944,6/30/1944,16,"Condé-sur-Vire, Saint-Lô, Manche, Normandie, France métropolitaine, 50890, France","CONDE SUR VIRE, France",49.0520765,-1.037915
FRANCE,CONDRIEU DU NORDE,70.0,6/30/1944,6/30/1944,2,,"CONDRIEU DU NORDE, France",,
FRANCE,CONFLANS,480.0,5/29/1944,7/18/1944,8,"Conflans, Albertville, Savoie, Auvergne-Rhône-Alpes, France métropolitaine, 73200, France","CONFLANS, France",45.6715876,6.3968848
FRANCE,CONNANTRE,433.0,8/18/1944,8/18/1944,2,"Connantre, Épernay, Marne, Grand Est, France métropolitaine, 51230, France","CONNANTRE, France",48.7252483,3.921526
FRANCE,CONNERRE,118.0,8/5/1944,8/5/1944,2,"Connerré, Mamers, Sarthe, Pays de la Loire, France métropolitaine, 72160, France","CONNERRE, France",48.0604578,0.4933923
FRANCE,CONTEVILLE,177.0,4/20/1944,4/27/1944,6,"Conteville, Dieppe, Seine-Maritime, Normandie, France métropolitaine, 76390, France","CONTEVILLE, France",49.6938778,1.6348314
FRANCE,COQUEREAUX,971.0,7/25/1944,8/9/1944,12,"Coquereaux, Richemont, Dieppe, Seine-Maritime, Normandie, France métropolitaine, 76390, France","COQUEREAUX, France",49.819848,1.6689107
FRANCE,CORBEIL,114.0,8/13/1944,8/13/1944,2,"Corbeil, Vitry-le-François, Marne, Grand Est, France métropolitaine, 51320, France","CORBEIL, France",48.5778506,4.4271148
FRANCE,CORBIE,144.0,8/7/1944,8/7/1944,2,"Corbie, Amiens, Somme, Hauts-de-France, France métropolitaine, 80800, France","CORBIE, France",49.9082911,2.5110728
FRANCE,CORME ECLUSE,684.0,6/19/1944,6/19/1944,24,"Corme-Écluse, Saintes, Charente-Maritime, Nouvelle-Aquitaine, France métropolitaine, 17600, France","CORME ECLUSE, France",45.6311266,-0.8555051
FRANCE,CORMEILLES,913.0,12/8/1940,7/22/1940,35,"Cormeilles, Beauvais, Oise, Hauts-de-France, France métropolitaine, 60120, France","CORMEILLES, France",49.6390754,2.1917033
FRANCE,CORMETTE,714.0,1/14/1944,6/21/1944,21,"Cormette, Zudausques, Saint-Omer, Pas-de-Calais, Hauts-de-France, France métropolitaine, 62500, France","CORMETTE, France",50.7571872,2.1653414
FRANCE,CORNETS,24.0,4/20/1944,4/20/1944,3,"Jardin des Trois Cornets, Paris 14e Arrondissement, Paris, France métropolitaine, 75014, France","CORNETS, France",48.8366692,2.3223755
FRANCE,COUBRONNE,500.0,6/23/1944,6/23/1944,2,"Ferme Coubronne, Clairmarais, Saint-Omer, Pas-de-Calais, Hauts-de-France, France métropolitaine, 62500, France","COUBRONNE, France",50.7775035,2.342267
FRANCE,COUCHES LES MINES,303.0,6/10/1944,6/10/1944,18,,"COUCHES LES MINES, France",,
FRANCE,COULANGES,253.0,6/25/1944,8/10/1944,9,"Coulanges, Vichy, Allier, Auvergne-Rhône-Alpes, France métropolitaine, 03470, France","COULANGES, France",46.4857459,3.8580008
FRANCE,COULOMMIERS,405.0,6/14/1944,8/11/1944,12,"Coulommiers, Meaux, Seine-et-Marne, France métropolitaine, 77120, France","COULOMMIERS, France",48.8121301,3.0843818
FRANCE,COULONVILLIERS,137.0,7/22/1944,8/9/1944,4,,"COULONVILLIERS, France",,
FRANCE,COURCELLES SUR NIED,380.0,6/4/1944,7/28/1944,8,"Courcelles-sur-Nied, Metz, Moselle, Grand Est, France métropolitaine, 57530, France","COURCELLES SUR NIED, France",49.0665082,6.3083115
FRANCE,COURCELLES SUR SEIN,74.0,5/31/1944,5/31/1944,2,,"COURCELLES SUR SEIN, France",,
FRANCE,COURONNE,822.0,6/19/1944,8/5/1944,48,"Couronne, Fontenilles, Muret, Haute-Garonne, Occitanie, France métropolitaine, 31470, France","COURONNE, France",43.5333403,1.1830124
FRANCE,COURS SAINTS,84.0,6/6/1944,6/6/1944,2,"École secondaire privée Cours Saints-Martin, Sablé-sur-Sarthe, La Flèche, Sarthe, Pays de la Loire, France métropolitaine, 72300, France","COURS SAINTS, France",47.8394536,-0.3363599
FRANCE,COURSELLES,426.0,4/10/1944,6/6/1944,12,"Courselles, Eymoutiers, Limoges, Haute-Vienne, Nouvelle-Aquitaine, France métropolitaine, 87120, France","COURSELLES, France",45.7519443,1.7669463
FRANCE,COURTALAIN,165.0,8/2/1944,8/6/1944,4,"Courtalain, Vald'Yerre, Châteaudun, Eure-et-Loir, Centre-Val de Loire, France métropolitaine, 28290, France","COURTALAIN, France",48.0833359,1.1363713
FRANCE,COURTOIN,22.0,8/8/1944,8/8/1944,1,"Courtoin, Sens, Yonne, Bourgogne-Franche-Comté, France métropolitaine, 89150, France","COURTOIN, France",48.1237865,3.1083386
FRANCE,COUTANCES,683.0,6/14/1944,6/6/1944,9,"Coutances, Manche, Normandie, France métropolitaine, 50200, France","COUTANCES, France",49.047792,-1.4454857
FRANCE,COUTANT,90.0,6/10/1944,6/10/1944,2,"Coutant, Hargnies, Avesnes-sur-Helpe, Nord, Hauts-de-France, France métropolitaine, 59138, France","COUTANT, France",50.2645219,3.8360631
FRANCE,COUVRON,648.0,5/9/1944,5/9/1944,12,"Couvron-et-Aumencourt, Laon, Aisne, Hauts-de-France, France métropolitaine, 02270, France","COUVRON, France",49.6436111,3.5175
FRANCE,CRECY,18.0,2/13/1944,2/13/1944,3,"Crécy-sur-Serre, Laon, Aisne, Hauts-de-France, France métropolitaine, 02270, France","CRECY, France",49.6982562,3.6219824
FRANCE,CREIL,4455.0,3/17/1944,8/14/1940,139,"Creil, Senlis, Oise, Hauts-de-France, France métropolitaine, 60100, France","CREIL, France",49.2607914,2.4733771
FRANCE,CREPIEUL,843.0,6/22/1944,8/5/1944,33,"Rue du Hameau de Crépieul, Crépy, Montreuil-sur-Mer, Pas-de-Calais, Hauts-de-France, France métropolitaine, 62310, France","CREPIEUL, France",50.468784,2.1818174
FRANCE,CREPY,1059.0,6/19/1944,7/6/1944,54,"Crépy, Montreuil-sur-Mer, Pas-de-Calais, Hauts-de-France, France métropolitaine, 62310, France","CREPY, France",50.4725262,2.2011403
FRANCE,CREST,83.0,8/13/1944,8/13/1944,1,"Crest, Die, Drôme, Auvergne-Rhône-Alpes, France métropolitaine, 26400, France","CREST, France",44.7282675,5.0236641
FRANCE,CRETON,36.0,8/2/1944,8/2/1944,3,"Creton, Dimbley, Dombras, Verdun, Meuse, Grand Est, France métropolitaine, 55150, France","CRETON, France",49.3896939,5.4455281
FRANCE,CRIQUETOT,23.0,8/13/1944,8/13/1944,1,"Criquetot-sur-Longueville, Dieppe, Seine-Maritime, Normandie, France métropolitaine, 76590, France","CRIQUETOT, France",49.7778018,1.0778882
FRANCE,CRISBECQ,484.0,4/25/1944,6/10/1944,11,"Crisbecq, Saint-Marcouf, Cherbourg, Manche, Normandie, France métropolitaine, 50310, France","CRISBECQ, France",49.4806818,-1.2914364
FRANCE,CROISETTE,664.0,1/14/1944,3/18/1944,14,"Croisette, Arras, Pas-de-Calais, Hauts-de-France, France métropolitaine, 62130, France","CROISETTE, France",50.352823,2.2605161
FRANCE,CROISILLES,96.0,8/5/1944,8/5/1944,2,"Croisilles, Arras, Pas-de-Calais, Hauts-de-France, France métropolitaine, 62128, France","CROISILLES, France",50.199782,2.8783364
FRANCE,CROIXDALLE,376.0,7/6/1944,7/6/1944,1,"Croixdalle, Dieppe, Seine-Maritime, Normandie, France métropolitaine, 76660, France","CROIXDALLE, France",49.8148485,1.3641502
FRANCE,CULMONT CHALINDREY,724.0,7/12/1944,7/12/1944,3,"Culmont - Chalindrey, Avenue de la Gare, Culmont, Langres, Haute-Marne, Grand Est, France métropolitaine, 52600, France","CULMONT CHALINDREY, France",47.8100902,5.4432217
FRANCE,CULOZ,48.0,8/25/1944,8/25/1944,2,"Culoz, Culoz-Béon, Belley, Ain, Auvergne-Rhône-Alpes, France métropolitaine, 01350, France","CULOZ, France",45.8476517,5.7809063
FRANCE,CUSTINES,262.0,9/10/1944,9/10/1944,6,"Custines, Nancy, Meurthe-et-Moselle, Grand Est, France métropolitaine, 54670, France","CUSTINES, France",48.791174,6.1422309
FRANCE,CUXHAVEN,1.0,11/13/1940,11/13/1940,1,"Cuxhaven, Place de Cuxhaven, Kercado, Vannes, Morbihan, Bretagne, France métropolitaine, 56000, France","CUXHAVEN, France",47.6488389,-2.7715983
FRANCE,DAINVILLE,12.0,7/6/1944,7/6/1944,2,"Dainville, Arras, Pas-de-Calais, Hauts-de-France, France métropolitaine, 62000, France","DAINVILLE, France",50.2807587,2.7226155
FRANCE,DAMMARTIN ENGOELE,78.0,8/18/1944,8/18/1944,3,,"DAMMARTIN ENGOELE, France",,
FRANCE,DANNES,710.0,2/5/1944,6/3/1944,20,"Dannes, Boulogne-sur-Mer, Pas-de-Calais, Hauts-de-France, France métropolitaine, 62187, France","DANNES, France",50.5889604,1.6160375
FRANCE,DDNZERE,70.0,8/15/1944,8/15/1944,1,,"DDNZERE, France",,
FRANCE,DE TOURNEHEIM,192.0,4/22/1944,4/22/1944,3,,"DE TOURNEHEIM, France",,
FRANCE,DEMOUVILLE,1479.0,7/18/1944,7/18/1944,24,"Démouville, Caen, Calvados, Normandie, France métropolitaine, 14840, France","DEMOUVILLE, France",49.1777862,-0.2688288
FRANCE,DENAIN,746.0,5/20/1944,7/6/1944,22,"Denain, Valenciennes, Nord, Hauts-de-France, France métropolitaine, 59220, France","DENAIN, France",50.3270926,3.3943729
FRANCE,DESVRES,51.0,2/5/1944,6/21/1941,4,"Desvres, Boulogne-sur-Mer, Pas-de-Calais, Hauts-de-France, France métropolitaine, 62240, France","DESVRES, France",50.6678737,1.8348266
FRANCE,DIEFFLEN,2.0,12/5/1944,12/5/1944,2,,"DIEFFLEN, France",,
FRANCE,DIEPPE,2362.0,1/14/1944,9/6/1943,73,"Dieppe, Seine-Maritime, Normandie, France métropolitaine, 76200, France","DIEPPE, France",49.9246182,1.0791444
FRANCE,DIEUZE,306.0,11/9/1944,11/9/1944,6,"Dieuze, Sarrebourg-Château-Salins, Moselle, Grand Est, France métropolitaine, 57260, France","DIEUZE, France",48.8104847,6.7179948
FRANCE,DIJON,3725.0,2/6/1944,8/14/1944,55,"Dijon, Côte-d'Or, Bourgogne-Franche-Comté, France métropolitaine, 21000, France","DIJON, France",47.3215806,5.0414701
FRANCE,DINAN,96.0,12/22/1940,9/28/1941,17,"Dinan, Côtes-d'Armor, Bretagne, France métropolitaine, 22100, France","DINAN, France",48.4539775,-2.047687
FRANCE,DOLE,456.0,8/14/1944,8/14/1944,12,"Dole, Jura, Bourgogne-Franche-Comté, France métropolitaine, 39100, France","DOLE, France",47.0921047,5.4925463
FRANCE,DOMART EN PONTHIEU,302.0,12/16/1943,3/26/1944,7,"Domart-en-Ponthieu, Amiens, Somme, Hauts-de-France, France métropolitaine, 80620, France","DOMART EN PONTHIEU, France",50.0741656,2.1263174
FRANCE,DOMFRONT,561.0,6/13/1944,7/6/1944,14,"Domfront, Clermont, Oise, Hauts-de-France, France métropolitaine, 60420, France","DOMFRONT, France",49.6032078,2.5553031
FRANCE,DOMLEGER,3720.0,6/14/1944,7/4/1944,33,"Domléger, Domléger-Longvillers, Amiens, Somme, Hauts-de-France, France métropolitaine, 80370, France","DOMLEGER, France",50.1597885,2.0856325
FRANCE,DONGES,1065.0,7/23/1944,7/24/1944,6,"Donges, Saint-Nazaire, Loire-Atlantique, Pays de la Loire, France métropolitaine, 44480, France","DONGES, France",47.3185376,-2.0745708
FRANCE,DOUAI,1769.0,10/27/1940,8/11/1944,18,"Douai, Nord, Hauts-de-France, France métropolitaine, 59500, France","DOUAI, France",50.3675677,3.0804641
FRANCE,DOULLENS,1120.0,11/8/1940,8/7/1944,24,"Doullens, Amiens, Somme, Hauts-de-France, France métropolitaine, 80600, France","DOULLENS, France",50.1572085,2.3410532
FRANCE,DOVAL,36.0,6/22/1944,6/22/1944,1,"Dr DOVAL - Dr LECHAT, Rue de Tal ar C'hef, An Nouellac'h, Tal ar C'hef, Poullan-sur-Mer, Quimper, Finistère, Bretagne, France métropolitaine, 29100, France","DOVAL, France",48.0807381,-4.4145502
FRANCE,DREAUX,421.0,6/10/1944,6/10/1944,1,"Les Dreaux, Chauffayer, Aubessagne, Gap, Hautes-Alpes, Provence-Alpes-Côte d'Azur, France métropolitaine, 05800, France","DREAUX, France",44.764501,5.9985755
FRANCE,DREUX,1374.0,10/14/1941,7/4/1944,43,"Dreux, Eure-et-Loir, Centre-Val de Loire, France métropolitaine, 28100, France","DREUX, France",48.7358807,1.3684254
FRANCE,DRIONVILLE,534.0,12/24/1943,4/30/1944,11,"Drionville, Vaudringhem, Saint-Omer, Pas-de-Calais, Hauts-de-France, France métropolitaine, 62380, France","DRIONVILLE, France",50.6451114,2.0531255
FRANCE,DROMMONT,72.0,8/12/1944,8/12/1944,3,,"DROMMONT, France",,
FRANCE,DUNKERQUE,2555.0,1/13/1941,9/8/1940,371,"Dunkerque, Nord, Hauts-de-France, France métropolitaine, France","DUNKERQUE, France",51.0347708,2.3772525
FRANCE,DURTAL,144.0,8/5/1944,8/5/1944,2,"Durtal, Angers, Maine-et-Loire, Pays de la Loire, France métropolitaine, 49430, France","DURTAL, France",47.6705186,-0.2453787
FRANCE,ECALLES SUR BUCHY,390.0,2/28/1944,2/28/1944,6,,"ECALLES SUR BUCHY, France",,
FRANCE,ECLIMEUX,983.0,1/21/1944,5/1/1944,22,"Éclimeux, Montreuil-sur-Mer, Pas-de-Calais, Hauts-de-France, France métropolitaine, 62770, France","ECLIMEUX, France",50.398789,2.1786889
FRANCE,ECOUCHE,124.0,7/28/1944,7/28/1944,4,"Écouché, Écouché-les-Vallées, Argentan, Orne, Normandie, France métropolitaine, 61150, France","ECOUCHE, France",48.7154779,-0.1088632
FRANCE,ECQUES,561.0,6/19/1944,8/30/1944,30,"Ecques, Saint-Omer, Pas-de-Calais, Hauts-de-France, France métropolitaine, 62129, France","ECQUES, France",50.6694939,2.2873185
FRANCE,EIKENHORST,189.0,9/17/1944,9/17/1944,3,,"EIKENHORST, France",,
FRANCE,ELBEUF,68.0,8/13/1944,8/13/1944,3,"Elbeuf, Rouen, Seine-Maritime, Normandie, France métropolitaine, 76500, France","ELBEUF, France",49.2871086,1.0108998
FRANCE,EMBRUN,112.0,8/19/1944,8/19/1944,2,"Embrun, Gap, Hautes-Alpes, Provence-Alpes-Côte d'Azur, France métropolitaine, 05200, France","EMBRUN, France",44.5641764,6.4958189
FRANCE,EMBRY,322.0,1/14/1944,2/5/1944,10,"Embry, Montreuil-sur-Mer, Pas-de-Calais, Hauts-de-France, France métropolitaine, 62990, France","EMBRY, France",50.4927818,1.9672374
FRANCE,ENGUINEGATTE,330.0,6/18/1944,7/6/1944,22,"Enguinegatte, Enquin-lez-Guinegatte, Saint-Omer, Pas-de-Calais, Hauts-de-France, France métropolitaine, 62145, France","ENGUINEGATTE, France",50.6086935,2.2689656
FRANCE,EPERLECQUES,92.0,8/30/1943,8/30/1943,4,"Éperlecques, Saint-Omer, Pas-de-Calais, Hauts-de-France, France métropolitaine, 62910, France","EPERLECQUES, France",50.8061561,2.1525694
FRANCE,EPERNON,502.0,6/12/1944,8/9/1944,12,"Épernon, Chartres, Eure-et-Loir, Centre-Val de Loire, France métropolitaine, 28230, France","EPERNON, France",48.6101745,1.677222
FRANCE,EPINAL,257.0,5/11/1944,5/23/1944,6,"Épinal, Vosges, Grand Est, France métropolitaine, 88000, France","EPINAL, France",48.1747684,6.4503643
FRANCE,EPONE MEZIERS,436.0,8/1/1944,8/9/1944,10,,"EPONE MEZIERS, France",,
FRANCE,EPREVILLE,342.0,6/2/1944,6/4/1944,9,"Épreville, Le Havre, Seine-Maritime, Normandie, France métropolitaine, 76400, France","EPREVILLE, France",49.7069365,0.3654641
FRANCE,EQUIHEN,1545.0,6/2/1944,6/4/1944,63,"Équihen-Plage, Boulogne-sur-Mer, Pas-de-Calais, Hauts-de-France, France métropolitaine, 62224, France","EQUIHEN, France",50.679393,1.5716648
FRANCE,ERNY ST JULIEN,302.0,6/20/1944,6/21/1944,5,"Erny-Saint-Julien, Saint-Omer, Pas-de-Calais, Hauts-de-France, France métropolitaine, 62960, France","ERNY ST JULIEN, France",50.5854293,2.253229
FRANCE,ESCALLES,150.0,2/13/1944,2/15/1944,6,"Escalles, Calais, Pas-de-Calais, Hauts-de-France, France métropolitaine, 62179, France","ESCALLES, France",50.9179845,1.7136049
FRANCE,ESSEY,591.0,8/18/1944,8/18/1944,12,"Essey, Beaune, Côte-d'Or, Bourgogne-Franche-Comté, France métropolitaine, 21320, France","ESSEY, France",47.2037611,4.5245759
FRANCE,ESTERNAY,154.0,6/25/1944,8/14/1944,3,"Esternay, Épernay, Marne, Grand Est, France métropolitaine, 51310, France","ESTERNAY, France",48.7323577,3.5572029
FRANCE,ET NEUVE,152.0,8/2/1944,8/9/1944,5,"Fourcatier-et-Maison-Neuve, Pontarlier, Doubs, Bourgogne-Franche-Comté, France métropolitaine, 25370, France","ET NEUVE, France",46.76241,6.3176524
FRANCE,ETAMPES,2913.0,11/15/1940,8/3/1944,51,"Étampes, Essonne, Île-de-France, France métropolitaine, 91150, France","ETAMPES, France",48.4344621,2.1614464
FRANCE,ETAPLES,2378.0,10/25/1940,8/5/1944,50,"Étaples, Montreuil-sur-Mer, Pas-de-Calais, Hauts-de-France, France métropolitaine, 62630, France","ETAPLES, France",50.5139552,1.6386252
FRANCE,EU,33.0,7/17/1944,7/17/1944,1,"Eu, Dieppe, Seine-Maritime, Normandie, France métropolitaine, 76260, France","EU, France",50.0491699,1.4175744
FRANCE,EURE RIVER,45.0,8/13/1944,8/13/1944,2,"L'Eure, France métropolitaine, France","EURE RIVER, France",48.8099651,1.3576768
FRANCE,EVREUX,4598.0,1/12/1941,9/3/1943,135,"Évreux, Eure, Normandie, France métropolitaine, 27000, France","EVREUX, France",49.0268903,1.1510164
FRANCE,EVRON,16.0,8/2/1944,8/2/1944,2,"Évron, Mayenne, Pays de la Loire, France métropolitaine, France","EVRON, France",48.1560603,-0.4029762
FRANCE,FALAISE,2218.0,6/10/1944,8/12/1944,57,"Falaise, Caen, Calvados, Normandie, France métropolitaine, 14700, France","FALAISE, France",48.8964741,-0.1999129
FRANCE,FASSEY,63.0,8/8/1944,8/8/1944,3,,"FASSEY, France",,
FRANCE,FEBVIN PALFART,207.0,3/26/1944,3/26/1944,3,"Febvin-Palfart, Saint-Omer, Pas-de-Calais, Hauts-de-France, France métropolitaine, 62960, France","FEBVIN PALFART, France",50.5384847,2.3157971
FRANCE,FECAMP,1833.0,11/13/1940,9/30/1941,82,"Fécamp, Le Havre, Seine-Maritime, Normandie, France métropolitaine, 76400, France","FECAMP, France",49.7577729,0.374891
FRANCE,FERFAY,434.0,7/24/1944,8/28/1944,10,"Ferfay, Béthune, Pas-de-Calais, Hauts-de-France, France métropolitaine, 62260, France","FERFAY, France",50.5195834,2.4227692
FRANCE,FERME D UREILIE,1055.0,6/1/1944,6/3/1944,5,,"FERME D UREILIE, France",,
FRANCE,FERME DU FORESTEL,510.0,7/12/1944,8/28/1944,9,,"FERME DU FORESTEL, France",,
FRANCE,FERME DU GRAND BOIS,229.0,7/20/1944,8/28/1944,4,"Ferme du Grand Bois, Chemin de Coné, Chatte, Grenoble, Isère, Auvergne-Rhône-Alpes, France métropolitaine, 38160, France","FERME DU GRAND BOIS, France",45.1578631,5.2728838
FRANCE,FIEFS,1362.0,6/19/1944,8/5/1944,57,"Fiefs, Arras, Pas-de-Calais, Hauts-de-France, France métropolitaine, 62134, France","FIEFS, France",50.5034427,2.3288853
FRANCE,FIENVILLERS,409.0,6/19/1944,6/23/1944,28,"Fienvillers, Amiens, Somme, Hauts-de-France, France métropolitaine, 80750, France","FIENVILLERS, France",50.1177927,2.2281644
FRANCE,FILERS,427.0,6/9/1944,6/9/1944,1,,"FILERS, France",,
FRANCE,FISMES,349.0,6/28/1944,8/16/1944,11,"Fismes, Reims, Marne, Grand Est, France métropolitaine, 51170, France","FISMES, France",49.3072444,3.6802766
FRANCE,FLERS,2711.0,6/14/1944,8/5/1944,59,"Flers, Arras, Pas-de-Calais, Hauts-de-France, France métropolitaine, 62270, France","FLERS, France",50.32053,2.25255
FRANCE,FLEURY,1200.0,6/19/1944,8/5/1944,54,"Fleury, Arras, Pas-de-Calais, Hauts-de-France, France métropolitaine, 62134, France","FLEURY, France",50.42199,2.25386
FRANCE,FLEURY LA MONTAGNE,501.0,5/22/1944,6/4/1944,21,"Fleury-la-Montagne, Charolles, Bourgogne-Franche-Comté, France métropolitaine, 71340, France","FLEURY LA MONTAGNE, France",46.2039885,4.1196537
FRANCE,FLIXECOURT,149.0,1/21/1944,4/20/1944,5,"Flixecourt, Amiens, Somme, Hauts-de-France, France métropolitaine, 80420, France","FLIXECOURT, France",50.0117096,2.082582
FRANCE,FLOTTEMANVILLE,471.0,4/20/1944,4/20/1944,12,"Flottemanville, Cherbourg, Manche, Normandie, France métropolitaine, 50700, France","FLOTTEMANVILLE, France",49.4737559,-1.4558489
FRANCE,FLOTTEMANVILLE HAGUE,420.0,4/27/1944,4/27/1944,6,"Flottemanville-Hague, La Hague, Cherbourg, Manche, Normandie, France métropolitaine, 50690, France","FLOTTEMANVILLE HAGUE, France",49.6221542,-1.7221043
FRANCE,FOET DU HELLE,8.0,3/1/1944,3/6/1944,4,,"FOET DU HELLE, France",,
FRANCE,FOLLEVILLE,0.0,7/16/1941,7/16/1941,1,"Folleville, Montdidier, Somme, Hauts-de-France, France métropolitaine, 80250, France","FOLLEVILLE, France",49.67622,2.36443
FRANCE,FOLLIGNY,134.0,6/7/1944,6/7/1944,2,"Folligny, Avranches, Manche, Normandie, France métropolitaine, 50320, France","FOLLIGNY, France",48.8244308,-1.410211
FRANCE,FONTAINE BELLENGER,23.0,8/13/1944,8/13/1944,1,"Fontaine-Bellenger, Les Andelys, Eure, Normandie, France métropolitaine, 27600, France","FONTAINE BELLENGER, France",49.1860776,1.2610829
FRANCE,FONTAINE LE PIN,78.0,7/7/1944,7/7/1944,2,"Fontaine-le-Pin, Caen, Calvados, Normandie, France métropolitaine, 14190, France","FONTAINE LE PIN, France",48.9734697,-0.2842325
FRANCE,FONTAN,44.0,8/4/1944,8/4/1944,2,"Fontan, Nice, Alpes-Maritimes, Provence-Alpes-Côte d'Azur, France métropolitaine, 06540, France","FONTAN, France",44.0028313,7.5540444
FRANCE,FOR NATION DE TOUR,180.0,3/2/1944,4/19/1944,6,,"FOR NATION DE TOUR, France",,
FRANCE,FORET D ANDAINE,1783.0,6/13/1944,8/6/1944,65,"Boulevard de la Forêt d'Andaine, La Ferté-Macé, Argentan, Orne, Normandie, France métropolitaine, 61600, France","FORET D ANDAINE, France",48.5977193,-0.3636204
FRANCE,FORET D AROUES,144.0,8/31/1944,8/31/1944,6,,"FORET D AROUES, France",,
FRANCE,FORET D ECOUVES,1251.0,6/15/1944,8/8/1944,34,"Forêt domaniale d'Écouves, Orne, Normandie, France métropolitaine, France","FORET D ECOUVES, France",48.5487424,0.0458675
FRANCE,FORET D ENGLOS,751.0,8/9/1944,8/9/1944,2,,"FORET D ENGLOS, France",,
FRANCE,FORET D EPERLECQUES,78.0,7/23/1941,8/30/1943,5,,"FORET D EPERLECQUES, France",,
FRANCE,FORET D HALOUSE,76.0,8/14/1944,8/14/1944,4,,"FORET D HALOUSE, France",,
FRANCE,FORET DE BIARDS,184.0,6/10/1944,6/10/1944,4,,"FORET DE BIARDS, France",,
FRANCE,FORET DE CATTENOM,134.0,9/11/1944,9/11/1944,2,,"FORET DE CATTENOM, France",,
FRANCE,FORET DE CCNCHES,256.0,6/22/1944,6/30/1944,6,,"FORET DE CCNCHES, France",,
FRANCE,FORET DE CHANTILLY,949.0,8/15/1944,8/8/1944,5,"Forêt de Chantilly, Chantilly, Senlis, Oise, Hauts-de-France, France métropolitaine, 60500, France","FORET DE CHANTILLY, France",49.1588529,2.5016504
FRANCE,FORET DE CHATELLERAU,970.0,8/9/1944,8/9/1944,3,,"FORET DE CHATELLERAU, France",,
FRANCE,FORET DE CINGLAIS,273.0,7/12/1944,7/12/1944,12,"Forêt de Cinglais, Saint-Laurent-de-Condel, Caen, Calvados, Normandie, France métropolitaine, 14220, France","FORET DE CINGLAIS, France",49.0222682,-0.4007478
FRANCE,FORET DE CONCHES,1083.0,6/24/1944,7/6/1944,27,"Forêt domaniale de Longeville, Les Conches, Longeville-sur-Mer, Les Sables-d'Olonne, Vendée, Pays de la Loire, France métropolitaine, 85560, France","FORET DE CONCHES, France",46.3756619,-1.4730471
FRANCE,FORET DE CRECY,142.0,6/7/1944,6/7/1944,4,"Forêt domaniale de Crécy-en-Ponthieu, Crécy-en-Ponthieu, Abbeville, Somme, Hauts-de-France, France métropolitaine, 80150, France","FORET DE CRECY, France",50.235457,1.8308471
FRANCE,FORET DE DREUX,40.0,7/5/1944,7/5/1944,2,"Forêt domaniale de Dreux, Abondant, Dreux, Eure-et-Loir, Centre-Val de Loire, France métropolitaine, 28410, France","FORET DE DREUX, France",48.8121883,1.434341
FRANCE,FORET DE GRIMOBQ,16.0,6/8/1944,6/8/1944,4,,"FORET DE GRIMOBQ, France",,
FRANCE,FORET DE HAYE,1003.0,9/10/1944,9/12/1944,29,"Forêt de Haye, Champigneulles, Nancy, Meurthe-et-Moselle, Grand Est, France métropolitaine, 54250, France","FORET DE HAYE, France",48.7200926,6.0889901
FRANCE,FORET DE L ISLE,24.0,8/18/1944,8/18/1944,2,"Dolmen de la Pierre-Plate situé dans la forêt de l'Isle-Adam, N 184, Presles, Pontoise, Val-d'Oise, France métropolitaine, 95590, France","FORET DE L ISLE, France",49.109064,2.2621188
FRANCE,FORET DE L ISLE ADA,144.0,8/18/1944,8/18/1944,3,,"FORET DE L ISLE ADA, France",,
FRANCE,FORET DE L ISLE ADAM,770.0,8/12/1944,8/12/1944,3,"Forêt de L’Isle-Adam, Nerville-la-Forêt, Pontoise, Val-d'Oise, France métropolitaine, 95590, France","FORET DE L ISLE ADAM, France",49.0867964,2.2778557
FRANCE,FORET DE LA GUERCHE,586.0,7/16/1944,7/31/1944,19,"Forêt de la Guerche, Rannée, Fougères-Vitré, Ille-et-Vilaine, Bretagne, France métropolitaine, 35130, France","FORET DE LA GUERCHE, France",47.8905032,-1.2333947
FRANCE,FORET DE LA LONDE,236.0,8/20/1944,8/20/1944,4,"Forêt domaniale de la Londe-Rouvray, Oissel-sur-Seine, Rouen, Seine-Maritime, Normandie, France métropolitaine, 76350, France","FORET DE LA LONDE, France",49.3568447,1.0686097
FRANCE,FORET DE LUCHEUX,515.0,8/8/1944,8/8/1944,2,"Forest de Lucheux, Lucheux, Amiens, Somme, Hauts-de-France, France métropolitaine, 80600, France","FORET DE LUCHEUX, France",50.2164358,2.4083165
FRANCE,FORET DE MONTRICHARD,406.0,8/12/1944,8/12/1944,2,,"FORET DE MONTRICHARD, France",,
FRANCE,FORET DE MORMAL,873.0,8/9/1944,9/2/1943,4,"Carrefour de la Roulie aux Equettes, Locquignol, Avesnes-sur-Helpe, Nord, Hauts-de-France, France métropolitaine, 59530, France","FORET DE MORMAL, France",50.2068779,3.7374578
FRANCE,FORET DE NIEPPE,3401.0,7/28/1944,8/5/1944,15,"Forêt de Nieppe - Bois Clébert, Morbecque, Dunkerque, Nord, Hauts-de-France, France métropolitaine, 59190, France","FORET DE NIEPPE, France",50.6833584,2.5566932
FRANCE,FORET DE PARROY,64.0,9/28/1944,9/28/1944,7,"Forêt Domaniale de Parroy, Parroy, Lunéville, Meurthe-et-Moselle, Grand Est, France métropolitaine, 54370, France","FORET DE PARROY, France",48.6417114,6.6077624
FRANCE,FORET DE PERSEIGNE,147.0,8/6/1944,8/6/1944,3,"Forêt de Perseigne, Neufchâtel-en-Saosnois, Mamers, Sarthe, Pays de la Loire, France métropolitaine, 72600, France","FORET DE PERSEIGNE, France",48.4027342,0.2435079
FRANCE,FORET DE RAISMES,77.0,9/3/1943,9/3/1943,2,"Forêt de Raismes-Saint-Amand-Wallers, Saint-Amand-les-Eaux, Valenciennes, Nord, Hauts-de-France, France métropolitaine, 59230, France","FORET DE RAISMES, France",50.428939,3.4765325
FRANCE,FORET DE ROUMARE,266.0,8/11/1944,8/16/1944,13,"Forêt de Roumare, Saint-Pierre-de-Manneville, Rouen, Seine-Maritime, Normandie, France métropolitaine, 76113, France","FORET DE ROUMARE, France",49.3898104,0.9631351
FRANCE,FORET DE SAMOUSSY,72.0,8/27/1944,8/27/1944,3,"Forêt domaniale de Samoussy, Marchais, Laon, Aisne, Hauts-de-France, France métropolitaine, 02350, France","FORET DE SAMOUSSY, France",49.5856325,3.7864122
FRANCE,FORET DE SENOCHES,1020.0,6/17/1944,7/28/1944,24,,"FORET DE SENOCHES, France",,
FRANCE,FORET DE SILLE,76.0,8/5/1944,8/5/1944,4,"Forêt domaniale de Sillé-le-Guillaume, Saint-Pierre-sur-Orthe, Mayenne, Pays de la Loire, France métropolitaine, 53160, France","FORET DE SILLE, France",48.204748,-0.1513808
FRANCE,FORET DE ST SAENS,171.0,7/8/1944,8/2/1944,9,"Bois de l'Abbaye, Les Hogues, Saint-Saëns, Dieppe, Seine-Maritime, Normandie, France métropolitaine, 76680, France","FORET DE ST SAENS, France",49.6666781,1.2932361
FRANCE,FORET DEANY,439.0,6/27/1944,6/27/1944,1,,"FORET DEANY, France",,
FRANCE,FORET DU CORBEAU,141.0,8/25/1944,8/25/1944,3,,"FORET DU CORBEAU, France",,
FRANCE,FORET DU CROC,1007.0,7/20/1944,8/9/1944,11,,"FORET DU CROC, France",,
FRANCE,FORETDENIEPPE HAZEBR,1179.0,8/2/1944,8/9/1944,8,,"FORETDENIEPPE HAZEBR, France",,
FRANCE,FORGES,60.0,7/31/1944,7/31/1944,4,"Forges, Provins, Seine-et-Marne, France métropolitaine, 77130, France","FORGES, France",48.4193206,2.9603646
FRANCE,FORT MARDICK,528.0,4/27/1944,9/2/1943,12,,"FORT MARDICK, France",,
FRANCE,FORT PHILIPPE,152.0,4/20/1944,8/8/1943,7,"Grand-Fort-Philippe, Dunkerque, Nord, Hauts-de-France, France métropolitaine, 59153, France","FORT PHILIPPE, France",51.0014456,2.1045965
FRANCE,FORTMONT DE COUPLE,671.0,5/19/1944,5/31/1944,4,,"FORTMONT DE COUPLE, France",,
FRANCE,FOUGERES,477.0,6/6/1944,6/8/1944,4,"Fougères, Fougères-Vitré, Ille-et-Vilaine, Bretagne, France métropolitaine, 35300, France","FOUGERES, France",48.3503362,-1.1958526
FRANCE,FOUILLARD,416.0,6/15/1944,6/15/1944,1,"Thorigné-Fouillard, Rennes, Ille-et-Vilaine, Bretagne, France métropolitaine, 35235, France","FOUILLARD, France",48.1535233,-1.5800238
FRANCE,FOULBEC,112.0,8/17/1944,8/17/1944,2,"Foulbec, Bernay, Eure, Normandie, France métropolitaine, 27210, France","FOULBEC, France",49.4006129,0.4230808
FRANCE,FOURNIVAL,693.0,8/26/1944,8/26/1944,21,"Fournival, Clermont, Oise, Hauts-de-France, France métropolitaine, 60130, France","FOURNIVAL, France",49.4669587,2.3872401
FRANCE,FRANZELLE,15.0,11/2/1940,11/2/1940,1,,"FRANZELLE, France",,
FRANCE,FREJUS,1188.0,8/10/1944,8/15/1944,36,"Fréjus, Draguignan, Var, Provence-Alpes-Côte d'Azur, France métropolitaine, France","FREJUS, France",43.4330308,6.7360182
FRANCE,FRENOUVILLE,1191.0,7/18/1944,7/18/1944,51,"Frénouville, Caen, Calvados, Normandie, France métropolitaine, 14630, France","FRENOUVILLE, France",49.1390059,-0.2464264
FRANCE,FRESNOY,123.0,7/8/1944,8/3/1944,6,"Fresnoy, Montreuil-sur-Mer, Pas-de-Calais, Hauts-de-France, France métropolitaine, 62770, France","FRESNOY, France",50.3673,2.12834
FRANCE,FREVAL,173.0,1/25/1944,2/9/1944,5,"Freval, Fermanville, Cherbourg, Manche, Normandie, France métropolitaine, 50840, France","FREVAL, France",49.6929006,-1.441623
FRANCE,FREVENT,334.0,7/17/1944,8/8/1944,8,"Frévent, Arras, Pas-de-Calais, Hauts-de-France, France métropolitaine, 62270, France","FREVENT, France",50.2782128,2.2929785
FRANCE,FROHEN,84.0,7/5/1944,7/5/1944,4,"Frohen-sur-Authie, Amiens, Somme, Hauts-de-France, France métropolitaine, 80370, France","FROHEN, France",50.2023219,2.2064512
FRANCE,FROMENTEL,212.0,7/28/1944,8/8/1944,7,"Fromentel, La Fresnaye-au-Sauvage, Putanges-le-Lac, Argentan, Orne, Normandie, France métropolitaine, 61210, France","FROMENTEL, France",48.7189211,-0.2670207
FRANCE,FRUGES BOIS DE COUP,159.0,12/31/1943,12/31/1943,3,,"FRUGES BOIS DE COUP, France",,
FRANCE,GAEL,318.0,6/10/1944,8/24/1940,16,"Gaël, Rennes, Ille-et-Vilaine, Bretagne, France métropolitaine, 35290, France","GAEL, France",48.1321352,-2.2228673
FRANCE,GALLARD,145.0,6/12/1944,6/14/1944,5,"Gallard, Le Longeron, Sèvremoine, Cholet, Maine-et-Loire, Pays de la Loire, France métropolitaine, 49710, France","GALLARD, France",47.0134522,-1.0667341
FRANCE,GAMACHES,30.0,7/11/1944,7/11/1944,4,"Gamaches, Abbeville, Somme, Hauts-de-France, France métropolitaine, 80220, France","GAMACHES, France",49.9855234,1.5557176
FRANCE,GAPENNES,119.0,7/11/1944,7/11/1944,3,"Gapennes, Abbeville, Somme, Hauts-de-France, France métropolitaine, 80150, France","GAPENNES, France",50.1825182,1.9540697
FRANCE,GASSICOURT,242.0,6/12/1944,7/8/1944,6,"Gassicourt, Mantes-la-Jolie, Yvelines, Île-de-France, France métropolitaine, 78200, France","GASSICOURT, France",49.0015403,1.6978224
FRANCE,GATTEVILLE,122.0,6/6/1944,6/6/1944,2,"Gatteville-le-Phare, Cherbourg, Manche, Normandie, France métropolitaine, 50760, France","GATTEVILLE, France",49.686724,-1.2827292
FRANCE,GENNEVILLIERS,1154.0,4/29/1942,9/29/1942,41,"Gennevilliers, Nanterre, Hauts-de-Seine, France métropolitaine, 92230, France","GENNEVILLIERS, France",48.9254221,2.2940122
FRANCE,GIEN,273.0,7/17/1944,7/6/1944,8,"Gien, Montargis, Loiret, Centre-Val de Loire, France métropolitaine, 45500, France","GIEN, France",47.6918575,2.6313889
FRANCE,GIRONDE RIVER,62.0,12/31/1943,12/31/1943,1,"La Charmoise, Fontenay-lès-Briis, Palaiseau, Essonne, Île-de-France, France métropolitaine, 91640, France","GIRONDE RIVER, France",48.6046043,2.1573168
FRANCE,GIVERVILLE,88.0,7/18/1944,7/18/1944,4,"Giverville, Bernay, Eure, Normandie, France métropolitaine, 27560, France","GIVERVILLE, France",49.19497,0.56879
FRANCE,GIVET,5.0,6/28/1944,7/31/1941,3,"Givet, Charleville-Mézières, Ardennes, Grand Est, France métropolitaine, 08600, France","GIVET, France",50.1362582,4.8248698
FRANCE,GIVORS,1478.0,5/25/1944,8/6/1944,9,"Givors, Lyon, Métropole de Lyon, Rhône, Auvergne-Rhône-Alpes, France métropolitaine, 69700, France","GIVORS, France",45.5844238,4.7696529
FRANCE,GLACIERE LA,1146.0,4/20/1944,5/8/1944,36,"Saint-Éloy-la-Glacière, Ambert, Puy-de-Dôme, Auvergne-Rhône-Alpes, France métropolitaine, 63890, France","GLACIERE LA, France",45.5610557,3.5733175
FRANCE,GLENNES,22.0,2/26/1945,2/26/1945,2,"Glennes, Les Septvallons, Soissons, Aisne, Hauts-de-France, France métropolitaine, 02160, France","GLENNES, France",49.3513928,3.7182872
FRANCE,GONDRECOURT,16.0,7/6/1944,7/6/1944,2,"Gondrecourt-Aix, Val-de-Briey, Meurthe-et-Moselle, Grand Est, France métropolitaine, 54800, France","GONDRECOURT, France",49.2456543,5.7677356
FRANCE,GORENFLOS,1303.0,1/14/1944,6/25/1944,32,"Gorenflos, Abbeville, Somme, Hauts-de-France, France métropolitaine, 80690, France","GORENFLOS, France",50.0957914,2.0494281
FRANCE,GOSNAY,28.0,11/8/1941,9/21/1941,10,"Gosnay, Béthune, Pas-de-Calais, Hauts-de-France, France métropolitaine, 62199, France","GOSNAY, France",50.5082881,2.5851405
FRANCE,GOURNAY,216.0,8/2/1944,8/8/1944,9,"Gournay, La Châtre, Indre, Centre-Val de Loire, France métropolitaine, 36230, France","GOURNAY, France",46.5831488,1.7310714
FRANCE,GRAND QUEVILLY,9.0,9/18/1941,9/20/1941,2,"Grand Quevilly, Boulevard Alsace-Lorraine, Soulac-sur-Mer, Lesparre-Médoc, Gironde, Nouvelle-Aquitaine, France métropolitaine, 33780, France","GRAND QUEVILLY, France",45.5085325,-1.1285285
FRANCE,GRANVILLE,652.0,6/12/1944,7/8/1944,18,"Granville, Avranches, Manche, Normandie, France métropolitaine, 50400, France","GRANVILLE, France",48.8376296,-1.5959177
FRANCE,GRAVELINES,1322.0,10/16/1940,9/10/1941,46,"Gravelines, Dunkerque, Nord, Hauts-de-France, France métropolitaine, 59820, France","GRAVELINES, France",50.9870697,2.1273118
FRANCE,GRENOBLE,239.0,5/26/1944,8/16/1944,3,"Grenoble, Isère, Auvergne-Rhône-Alpes, France métropolitaine, France","GRENOBLE, France",45.1875602,5.7357819
FRANCE,GRIMONE,720.0,1/23/1944,6/23/1944,26,"Grimone, Glandage, Die, Drôme, Auvergne-Rhône-Alpes, France métropolitaine, 26410, France","GRIMONE, France",44.6960662,5.635832
FRANCE,GRIS NEZ,19.0,12/20/1940,8/19/1940,2,"Gris Nez, Rue de Dunkerque, Courcelles-lès-Lens, Lens, Pas-de-Calais, Hauts-de-France, France métropolitaine, 62970, France","GRIS NEZ, France",50.4194624,3.027536
FRANCE,GRISBECQ,597.0,6/5/1944,6/5/1944,2,,"GRISBECQ, France",,
FRANCE,GROSLEY,170.0,7/23/1944,7/28/1944,6,"Grosley-sur-Risle, Bernay, Eure, Normandie, France métropolitaine, 27170, France","GROSLEY, France",49.0455744,0.8015148
FRANCE,GUESCHART,600.0,1/14/1944,12/24/1943,9,"Gueschart, Abbeville, Somme, Hauts-de-France, France métropolitaine, 80150, France","GUESCHART, France",50.2389873,2.0114774
FRANCE,GUINES,8.0,1/10/1941,9/6/1940,13,"Guînes, Calais, Pas-de-Calais, Hauts-de-France, France métropolitaine, 62340, France","GUINES, France",50.8690859,1.8704408
FRANCE,GUYANCOURT,519.0,6/15/1944,6/17/1944,15,"Guyancourt, Versailles, Yvelines, Île-de-France, France métropolitaine, 78280, France","GUYANCOURT, France",48.7709414,2.0706084
FRANCE,GUYENCOURT,336.0,6/22/1944,6/22/1944,7,"Guyencourt, Laon, Aisne, Hauts-de-France, France métropolitaine, 02160, France","GUYENCOURT, France",49.3572,3.83788
FRANCE,HAGENAU,1080.0,11/17/1944,8/14/1944,46,"Haguenau, Haguenau-Wissembourg, Bas-Rhin, Grand Est, France métropolitaine, 67500, France","HAGENAU, France",48.8172236,7.7885978
FRANCE,HAM,175.0,6/14/1944,8/28/1944,7,"Ham, Péronne, Somme, Hauts-de-France, France métropolitaine, 80400, France","HAM, France",49.746322,3.0733031
FRANCE,HANTAY,63.0,7/6/1944,7/6/1944,3,"Hantay, Lille, Nord, Hauts-de-France, France métropolitaine, 59496, France","HANTAY, France",50.5339677,2.8675116
FRANCE,HARDELOT,1683.0,4/27/1944,9/19/1944,64,"Neufchâtel-Hardelot, Boulogne-sur-Mer, Pas-de-Calais, Hauts-de-France, France métropolitaine, 62152, France","HARDELOT, France",50.6188491,1.6306156
FRANCE,HARKINGKELLES,252.0,6/2/1944,8/22/1940,4,,"HARKINGKELLES, France",,
FRANCE,HARNES,90.0,8/3/1944,8/3/1944,2,"Harnes, Lens, Pas-de-Calais, Hauts-de-France, France métropolitaine, 62440, France","HARNES, France",50.44741,2.9068246
FRANCE,HAUT MAISNIL,395.0,7/17/1944,8/8/1944,13,"Le Haut Quesnoy, Le Maisnil, Lille, Nord, Hauts-de-France, France métropolitaine, 59134, France","HAUT MAISNIL, France",50.612092,2.8783776
FRANCE,HAUTECOTE,207.0,6/20/1944,6/20/1944,3,"Nuncq-Hautecôte, Arras, Pas-de-Calais, Hauts-de-France, France métropolitaine, 62270, France","HAUTECOTE, France",50.305812,2.2877407
FRANCE,HAZEBROUCK,793.0,3/19/1944,9/4/1943,31,"Hazebrouck, Dunkerque, Nord, Hauts-de-France, France métropolitaine, 59190, France","HAZEBROUCK, France",50.7226113,2.5360331
FRANCE,HEBECREVON,1713.0,7/25/1944,7/25/1944,19,"Hébécrevon, Thèreval, Saint-Lô, Manche, Normandie, France métropolitaine, 50180, France","HEBECREVON, France",49.1265922,-1.1663789
FRANCE,HELICOURT,64.0,7/11/1944,8/3/1944,4,"Hélicourt, Tilloy-Floriville, Abbeville, Somme, Hauts-de-France, France métropolitaine, 80220, France","HELICOURT, France",49.9977209,1.575107
FRANCE,HENINLITTARD,176.0,8/25/1944,8/25/1944,12,,"HENINLITTARD, France",,
FRANCE,HERBOUVILLE,179.0,1/27/1944,2/28/1944,7,"Herbouville La Brédache, Brévainville, Vendôme, Loir-et-Cher, Centre-Val de Loire, France métropolitaine, 41160, France","HERBOUVILLE, France",47.9557641,1.2905971
FRANCE,HERMANVILLE,303.0,6/1/1944,6/2/1944,9,"Hermanville, Dieppe, Seine-Maritime, Normandie, France métropolitaine, 76730, France","HERMANVILLE, France",49.8197796,0.986587
FRANCE,HESDIN,855.0,1/24/1944,9/2/1943,16,"Hesdin, Hesdin-la-Forêt, Montreuil-sur-Mer, Pas-de-Calais, Hauts-de-France, France métropolitaine, 62140, France","HESDIN, France",50.3738145,2.038979
FRANCE,HEUDEIRE,288.0,4/27/1944,5/7/1944,6,,"HEUDEIRE, France",,
FRANCE,HEURINGHEM,603.0,1/21/1944,4/22/1944,15,"Heuringhem, Saint-Omer, Pas-de-Calais, Hauts-de-France, France métropolitaine, 62575, France","HEURINGHEM, France",50.6960592,2.2836683
FRANCE,HIRSON,896.0,3/25/1944,3/6/1944,16,"Hirson, Vervins, Aisne, Hauts-de-France, France métropolitaine, 02500, France","HIRSON, France",49.9203419,4.0837186
FRANCE,HOLQUE,60.0,6/24/1944,6/25/1944,2,"Holque, Dunkerque, Nord, Hauts-de-France, France métropolitaine, 59143, France","HOLQUE, France",50.8536966,2.2036164
FRANCE,HONFLEUR,6.0,10/22/1941,10/22/1941,2,"Honfleur, Lisieux, Calvados, Normandie, France métropolitaine, 14600, France","HONFLEUR, France",49.4197222,0.2338889
FRANCE,HOUDAN,28.0,8/7/1944,8/7/1944,2,"Houdan, Mantes-la-Jolie, Yvelines, Île-de-France, France métropolitaine, 78550, France","HOUDAN, France",48.7912001,1.6019247
FRANCE,HOULGATE,879.0,6/20/1944,7/5/1944,13,"Houlgate, Lisieux, Calvados, Normandie, France métropolitaine, 14510, France","HOULGATE, France",49.3008653,-0.0751662
FRANCE,HOUPPEVILLE,168.0,7/17/1944,8/2/1944,6,"Houppeville, Rouen, Seine-Maritime, Normandie, France métropolitaine, 76770, France","HOUPPEVILLE, France",49.5097935,1.0813157
FRANCE,HULL LOUPOLN,11.0,6/29/1944,6/29/1944,1,,"HULL LOUPOLN, France",,
FRANCE,HUMIERES,273.0,7/6/1944,8/3/1944,15,"Humières, Arras, Pas-de-Calais, Hauts-de-France, France métropolitaine, 62130, France","HUMIERES, France",50.3872243,2.2037707
FRANCE,I DE PONQUEROLLES,141.0,8/12/1944,8/12/1944,6,,"I DE PONQUEROLLES, France",,
FRANCE,ILE DE CEZEMBRE,1125.0,8/11/1944,8/7/1944,48,"Île de Cézembre, Saint-Malo, Ille-et-Vilaine, Bretagne, France métropolitaine, 35400, France","ILE DE CEZEMBRE, France",48.6768428,-2.0715022
FRANCE,ILE DU LEVANT,162.0,8/11/1944,8/11/1944,3,"Île du Levant, Hyères, Toulon, Var, Provence-Alpes-Côte d'Azur, France métropolitaine, 83400, France","ILE DU LEVANT, France",43.0283395,6.4684372
FRANCE,ILE RATENNEAU,1029.0,8/24/1944,8/27/1944,33,,"ILE RATENNEAU, France",,
FRANCE,ILLIERS,807.0,6/12/1944,7/4/1944,21,"Illiers, Saint-Laurent-de-Terregatte, Avranches, Manche, Normandie, France métropolitaine, 50240, France","ILLIERS, France",48.5697674,-1.2766671
FRANCE,ISIGNY,66.0,6/8/1944,6/8/1944,6,"Isigny, Hardinvast, Cherbourg, Manche, Normandie, France métropolitaine, 50690, France","ISIGNY, France",49.589798,-1.6392751
FRANCE,ISTRES,1173.0,1/21/1944,8/16/1944,19,"Istres, Bouches-du-Rhône, Provence-Alpes-Côte d'Azur, France métropolitaine, France","ISTRES, France",43.5139051,4.9884323
FRANCE,JAFFE,560.0,4/15/1945,4/15/1945,16,"Jaffe, Saint-Sulpice-de-Royan, Rochefort, Charente-Maritime, Nouvelle-Aquitaine, France métropolitaine, 17200, France","JAFFE, France",45.660176,-1.0238903
FRANCE,JARD RIVER,72.0,8/6/1944,8/6/1944,4,"Rivière Saint-James, Saint-Pierre, Martinique, 97250, France","JARD RIVER, France",14.7496397,-61.169323
FRANCE,JOIGNY,1324.0,6/25/1944,8/8/1944,23,"Joigny, Sens, Yonne, Bourgogne-Franche-Comté, France métropolitaine, 89300, France","JOIGNY, France",47.9812486,3.3995767
FRANCE,JUKSEY,280.0,7/17/1944,8/8/1944,9,,"JUKSEY, France",,
FRANCE,JUNAINCOURT,46.0,3/3/1944,3/3/1944,2,,"JUNAINCOURT, France",,
FRANCE,JUVINCOURT,1647.0,5/9/1944,7/23/1944,42,"Juvincourt-et-Damary, Laon, Aisne, Hauts-de-France, France métropolitaine, 02190, France","JUVINCOURT, France",49.4470371,3.8934212
FRANCE,JUVISY SUR ORGE,527.0,5/27/1944,8/3/1944,9,"Juvisy-sur-Orge, Palaiseau, Essonne, France métropolitaine, 91260, France","JUVISY SUR ORGE, France",48.6904063,2.373809
FRANCE,JUZENNECOURT,1233.0,6/16/1944,8/12/1944,30,"Juzennecourt, Chaumont, Haute-Marne, Grand Est, France métropolitaine, 52330, France","JUZENNECOURT, France",48.1836887,4.9792081
FRANCE,KEMBS,72.0,10/7/1944,10/7/1944,1,"Kembs, Mulhouse, Haut-Rhin, Grand Est, France métropolitaine, 68680, France","KEMBS, France",47.6895561,7.5048054
FRANCE,KERDREIN,144.0,8/25/1944,8/25/1944,3,"Kerdrein, Glomel, Guingamp, Côtes-d'Armor, Bretagne, France métropolitaine, 22110, France","KERDREIN, France",48.1829157,-3.3753014
FRANCE,KERLIN,1248.0,6/7/1944,9/23/1943,42,"Kerlin, Saint-Philibert, Trégunc, Quimper, Finistère, Bretagne, France métropolitaine, 29910, France","KERLIN, France",47.8088748,-3.8483349
FRANCE,L ISLE ADAM,954.0,7/5/1944,8/9/1944,27,"L'Isle-Adam, Pontoise, Val-d'Oise, Île-de-France, France métropolitaine, 95290, France","L ISLE ADAM, France",49.1125294,2.2186324
FRANCE,LA BARBERIE,114.0,7/4/1944,7/4/1944,2,"La Barberie, Fumichon, Lisieux, Calvados, Normandie, France métropolitaine, 14590, France","LA BARBERIE, France",49.180626,0.3689164
FRANCE,LA BARRE,0.0,7/10/1944,7/10/1944,1,"La Barre, Vesoul, Haute-Saône, Bourgogne-Franche-Comté, France métropolitaine, 70190, France","LA BARRE, France",47.4042066,6.1789917
FRANCE,LA BASSEE,7.0,9/26/1941,9/26/1941,1,"La Bassée, Lille, Nord, Hauts-de-France, France métropolitaine, 59480, France","LA BASSEE, France",50.5316305,2.8046597
FRANCE,LA BELLE,76.0,8/13/1944,8/13/1944,1,"La Belle, Mareuil en Périgord, Nontron, Dordogne, Nouvelle-Aquitaine, France métropolitaine, 24340, France","LA BELLE, France",45.4396538,0.4780927
FRANCE,LA BELLE HOTESSE,198.0,6/20/1944,6/20/1944,6,"La Belle Hôtesse, Coutances, Manche, Normandie, France métropolitaine, 50200, France","LA BELLE HOTESSE, France",49.0647485,-1.4547201
FRANCE,LA BRETEQUE,169.0,8/1/1944,8/9/1944,5,"La Bretèque, Bois-Guillaume, Rouen, Seine-Maritime, Normandie, France métropolitaine, 76230, France","LA BRETEQUE, France",49.4852677,1.1061373
FRANCE,LA CHAPELLE EN JAGE,1876.0,7/25/1944,8/3/1944,24,,"LA CHAPELLE EN JAGE, France",,
FRANCE,LA CHENAIE,140.0,8/3/1944,8/3/1944,2,"La Chenaie, Bonneuil-en-Valois, Senlis, Oise, Hauts-de-France, France métropolitaine, 60123, France","LA CHENAIE, France",49.2815489,3.0016065
FRANCE,LA CROISILLE,218.0,7/23/1944,7/31/1944,8,"La Croisille, Évreux, Eure, Normandie, France métropolitaine, 27190, France","LA CROISILLE, France",48.9824742,0.9765118
FRANCE,LA FAVERIE,132.0,6/10/1944,6/10/1944,4,"La Faverie, Clécy, Caen, Calvados, Normandie, France métropolitaine, 14570, France","LA FAVERIE, France",48.9049214,-0.4734588
FRANCE,LA FERRIERE AU DOYE,128.0,8/17/1944,8/17/1944,4,,"LA FERRIERE AU DOYE, France",,
FRANCE,LA FERRIERE BACHET,21.0,7/6/1944,7/6/1944,3,,"LA FERRIERE BACHET, France",,
FRANCE,LA FERTE BERNARD,87.0,7/8/1944,7/8/1944,3,"La Ferté-Bernard, Mamers, Sarthe, Pays de la Loire, France métropolitaine, 72400, France","LA FERTE BERNARD, France",48.1860576,0.6554511
FRANCE,LA FERTE MACE,70.0,8/12/1944,8/12/1944,2,"La Ferté-Macé, Argentan, Orne, Normandie, France métropolitaine, 61600, France","LA FERTE MACE, France",48.5895488,-0.3584924
FRANCE,LA FOSSE CORDUAN,315.0,6/5/1944,6/5/1944,6,"La Fosse-Corduan, Nogent-sur-Seine, Aube, Grand Est, France métropolitaine, 10100, France","LA FOSSE CORDUAN, France",48.4427066,3.6512139
FRANCE,LA FRILLIERE,274.0,6/15/1944,6/8/1944,4,"La Frillière, Vouvray, Tours, Indre-et-Loire, Centre-Val de Loire, France métropolitaine, 37210, France","LA FRILLIERE, France",47.3961068,0.8279929
FRANCE,LA GLACERIE,795.0,1/1/1944,4/4/1944,25,"La Glacerie, Cherbourg-en-Cotentin, Cherbourg, Manche, Normandie, France métropolitaine, 50470, France","LA GLACERIE, France",49.6048279,-1.5831838
FRANCE,LA GLORAIRE,159.0,3/26/1944,3/26/1944,3,,"LA GLORAIRE, France",,
FRANCE,LA GOUESNIERE,68.0,7/28/1944,7/28/1944,4,"La Gouesnière, Saint-Malo, Ille-et-Vilaine, Bretagne, France métropolitaine, 35350, France","LA GOUESNIERE, France",48.6048797,-1.8925099
FRANCE,LA GRANDE VALLEE,480.0,7/17/1944,8/8/1944,15,"La Grande Vallee, Chaserey, Troyes, Aube, Grand Est, France métropolitaine, 10210, France","LA GRANDE VALLEE, France",47.9577179,4.0607286
FRANCE,LA GRAVERIE,64.0,6/8/1944,6/8/1944,4,"La Graverie, Souleuvre-en-Bocage, Vire, Calvados, Normandie, France métropolitaine, 14350, France","LA GRAVERIE, France",48.89463,-0.8813182
FRANCE,LA HAYE,1728.0,6/1/1944,8/28/1944,21,"La Haye, Dieppe, Seine-Maritime, Normandie, France métropolitaine, 76780, France","LA HAYE, France",49.4663872,1.4418997
FRANCE,LA HAYE DU PUITS,182.0,6/12/1944,6/8/1944,4,"La Haye-du-Puits, La Haye, Coutances, Manche, Normandie, France métropolitaine, 50250, France","LA HAYE DU PUITS, France",49.2910526,-1.545089
FRANCE,LA HAYE PESNEL,93.0,7/24/1944,7/24/1944,3,"La Haye-Pesnel, Avranches, Manche, Normandie, France métropolitaine, 50320, France","LA HAYE PESNEL, France",48.7949375,-1.3965379
FRANCE,LA HOLLANDE,60.0,3/24/1945,3/24/1945,3,"La Hollande, Saint-Ciers-de-Canesse, Blaye, Gironde, Nouvelle-Aquitaine, France métropolitaine, 33710, France","LA HOLLANDE, France",45.0909926,-0.6052283
FRANCE,LA HOUSSOYE,618.0,7/17/1944,8/8/1944,18,"La Houssoye, Beauvais, Oise, Hauts-de-France, France métropolitaine, 60390, France","LA HOUSSOYE, France",49.3543903,1.9421609
FRANCE,LA LOUPE,351.0,6/17/1944,7/6/1944,12,"La Loupe, Nogent-le-Rotrou, Eure-et-Loir, Centre-Val de Loire, France métropolitaine, 28240, France","LA LOUPE, France",48.4737,1.02521
FRANCE,LA MARRE,88.0,6/22/1944,6/22/1944,2,"La Marre, Lons-le-Saunier, Jura, Bourgogne-Franche-Comté, France métropolitaine, 39210, France","LA MARRE, France",46.7341,5.69725
FRANCE,LA MEILLARD,72.0,1/14/1944,1/14/1944,3,"La Haute Brenne, Meillard, Moulins, Allier, Auvergne-Rhône-Alpes, France métropolitaine, 03500, France","LA MEILLARD, France",46.4042756,3.2311928
FRANCE,LA MORINIERE,14.0,7/4/1944,7/4/1944,10,"La Moriniere, Bouchamps-lès-Craon, Château-Gontier, Mayenne, Pays de la Loire, France métropolitaine, 53800, France","LA MORINIERE, France",47.7868794,-0.9803431
FRANCE,LA PALLICE,2482.0,11/18/1942,9/16/1943,84,"La Pallice, La Rochelle, Charente-Maritime, Nouvelle-Aquitaine, France métropolitaine, 17000, France","LA PALLICE, France",46.1618661,-1.2133928
FRANCE,LA PERNELLE,1243.0,5/19/1944,6/7/1944,12,"La Pernelle, Cherbourg, Manche, Normandie, France métropolitaine, 50630, France","LA PERNELLE, France",49.6190242,-1.2992649
FRANCE,LA PHILIBERTE FERME,88.0,7/14/1944,7/14/1944,2,,"LA PHILIBERTE FERME, France",,
FRANCE,LA POSSONIERE,294.0,6/15/1944,7/19/1944,4,"Maison natale de Ronsard, Chemin du Vaugarnier, Le Vaugarnier, Couture-sur-Loir, Vallée-de-Ronsard, Vendôme, Loir-et-Cher, Centre-Val de Loire, France métropolitaine, 41800, France","LA POSSONIERE, France",47.7466013,0.6923992
FRANCE,LA POTSVIE AU PENCH,18.0,7/6/1944,7/6/1944,2,,"LA POTSVIE AU PENCH, France",,
FRANCE,LA POURCHINTE,282.0,9/1/1944,9/1/1944,3,"Rue de la Pourchinte, Elnes, Saint-Omer, Pas-de-Calais, Hauts-de-France, France métropolitaine, 62380, France","LA POURCHINTE, France",50.6942224,2.1277878
FRANCE,LA PUISAYE,78.0,8/5/1944,8/5/1944,2,"La Puisaye, Dreux, Eure-et-Loir, Centre-Val de Loire, France métropolitaine, 28250, France","LA PUISAYE, France",48.6083912,0.9572946
FRANCE,LA RABELLERIE,78.0,8/17/1944,8/17/1944,2,"La Rabellerie, Chisseaux, Loches, Indre-et-Loire, Centre-Val de Loire, France métropolitaine, 37150, France","LA RABELLERIE, France",47.3402704,1.1023342
FRANCE,LA RICAMARIE,78.0,3/10/1944,3/10/1944,1,"La Ricamarie, Saint-Étienne, Loire, Auvergne-Rhône-Alpes, France métropolitaine, 42150, France","LA RICAMARIE, France",45.4037177,4.3660765
FRANCE,LA ROCHE SUR YON,286.0,1/1/1945,12/27/1944,6,"La Roche-sur-Yon, Vendée, Pays de la Loire, France métropolitaine, 85000, France","LA ROCHE SUR YON, France",46.6705431,-1.4269698
FRANCE,LA ROCHELLE,447.0,1/12/1942,4/12/1941,16,"La Rochelle, Charente-Maritime, Nouvelle-Aquitaine, France métropolitaine, 17000, France","LA ROCHELLE, France",46.159732,-1.1515951
FRANCE,LA ROUPIE,76.0,4/23/1944,4/23/1944,2,"La Roupie, D 187, Trézennes, Isbergues, Béthune, Pas-de-Calais, Hauts-de-France, France métropolitaine, 62330, France","LA ROUPIE, France",50.6299069,2.4309056
FRANCE,LA SORELLERIE,52.0,2/15/1944,2/15/1944,2,"La Sorellerie, Saussemesnil, Cherbourg, Manche, Normandie, France métropolitaine, 50700, France","LA SORELLERIE, France",49.5805021,-1.5365431
FRANCE,LA VOULTE SUR RHONE,132.0,8/6/1944,8/7/1944,6,"La Voulte-sur-Rhône, Privas, Ardèche, Auvergne-Rhône-Alpes, France métropolitaine, 07800, France","LA VOULTE SUR RHONE, France",44.8000756,4.7813846
FRANCE,LABROYE,264.0,1/21/1944,12/24/1943,6,"Labroye, Montreuil-sur-Mer, Pas-de-Calais, Hauts-de-France, France métropolitaine, 62140, France","LABROYE, France",50.2782208,1.9899078
FRANCE,LAIGLE,739.0,6/7/1944,8/5/1944,27,"Laigle, Caisnes, Compiègne, Oise, Hauts-de-France, France métropolitaine, 60400, France","LAIGLE, France",49.5224721,3.0514771
FRANCE,LAMBERS,140.0,8/31/1944,8/31/1944,2,,"LAMBERS, France",,
FRANCE,LAMBUS,351.0,6/20/1944,6/23/1944,6,"Lambus, Mouriez, Montreuil-sur-Mer, Pas-de-Calais, Hauts-de-France, France métropolitaine, 62140, France","LAMBUS, France",50.3672758,1.9524229
FRANCE,LANDES DE BUSSAC,99.0,3/5/1944,3/5/1944,6,,"LANDES DE BUSSAC, France",,
FRANCE,LANEUVILLE,340.0,8/12/1944,8/9/1944,9,"Laneuville, Saint-Joire, Commercy, Meuse, Grand Est, France métropolitaine, 55130, France","LANEUVILLE, France",48.5950919,5.4018908
FRANCE,LANNION,46.0,10/24/1941,9/17/1940,36,"Lannion, Côtes-d'Armor, Bretagne, France métropolitaine, 22300, France","LANNION, France",48.7322183,-3.4587994
FRANCE,LAON,7259.0,1/13/1943,8/8/1944,158,"Laon, Aisne, Hauts-de-France, France métropolitaine, 02000, France","LAON, France",49.564665,3.620686
FRANCE,LAPENNE,153.0,4/12/1944,4/12/1944,3,"Lapenne, Pamiers, Ariège, Occitanie, France métropolitaine, 09500, France","LAPENNE, France",43.1460545,1.7498603
FRANCE,LAUNAY,92.0,8/17/1944,8/17/1944,4,"Launay, Bernay, Eure, Normandie, France métropolitaine, 27470, France","LAUNAY, France",49.1024238,0.7420041
FRANCE,LAVAL,1936.0,5/28/1944,7/24/1944,39,"Laval, Mayenne, Pays de la Loire, France métropolitaine, 53000, France","LAVAL, France",48.0706687,-0.7734022
FRANCE,LAVAUPLIERE,90.0,6/25/1944,6/25/1944,3,,"LAVAUPLIERE, France",,
FRANCE,LAYE LEBELLES MARTIN,180.0,6/29/1944,6/29/1944,5,,"LAYE LEBELLES MARTIN, France",,
FRANCE,LE BOURG,216.0,8/14/1944,8/17/1944,8,"Saint-Paër, Rouen, Seine-Maritime, Normandie, France métropolitaine, 76480, France","LE BOURG, France",49.5161962,0.8803692
FRANCE,LE BOURGET,2568.0,6/14/1944,8/16/1943,102,"Le Bourget, Le Raincy, Seine-Saint-Denis, France métropolitaine, 93350, France","LE BOURGET, France",48.9351403,2.4258354
FRANCE,LE CHATELET,309.0,6/4/1944,6/4/1944,12,"Le Châtelet, Saint-Amand-Montrond, Cher, Centre-Val de Loire, France métropolitaine, 18170, France","LE CHATELET, France",46.6418114,2.2835591
FRANCE,LE CLIPON,710.0,5/19/1944,5/27/1944,3,,"LE CLIPON, France",,
FRANCE,LE COMBE,48.0,8/13/1944,8/13/1944,2,"Le Combe, Sermur, Aubusson, Creuse, Nouvelle-Aquitaine, France métropolitaine, 23700, France","LE COMBE, France",45.961584,2.4127067
FRANCE,LE CREUSIL,24.0,7/9/1944,7/9/1944,1,"Le Creusil, Criens, Billy-Chevannes, Nevers, Nièvre, Bourgogne-Franche-Comté, France métropolitaine, 58270, France","LE CREUSIL, France",47.0004877,3.4758934
FRANCE,LE CREUSOT,2020.0,10/17/1942,6/19/1943,8,"Le Creusot, Autun, Saône-et-Loire, Bourgogne-Franche-Comté, France métropolitaine, 71200, France","LE CREUSOT, France",46.8054064,4.4285961
FRANCE,LE GRAND ROSSIGNOL,497.0,6/20/1944,6/24/1944,3,"Le Grand Rossignol, Machiel, Abbeville, Somme, Hauts-de-France, France métropolitaine, 80150, France","LE GRAND ROSSIGNOL, France",50.2748615,1.8444329
FRANCE,LE GROSEILLER,63.0,4/20/1944,4/20/1944,6,"Le Groseiller, Lisbourg, Arras, Pas-de-Calais, Hauts-de-France, France métropolitaine, 62134, France","LE GROSEILLER, France",50.5192628,2.2134501
FRANCE,LE HAVRE,16690.0,1/12/1941,9/8/1944,301,"Le Havre, Seine-Maritime, Normandie, France métropolitaine, France","LE HAVRE, France",49.4938975,0.1079732
FRANCE,LE HOULME,108.0,6/22/1944,6/22/1944,3,"Le Houlme, Rouen, Seine-Maritime, Normandie, France métropolitaine, 76770, France","LE HOULME, France",49.5096,1.03741
FRANCE,LE LENTIE,50.0,7/8/1944,7/8/1944,3,,"LE LENTIE, France",,
FRANCE,LE LIEGE,24.0,5/25/1944,5/25/1944,3,"Le Liège, Loches, Indre-et-Loire, Centre-Val de Loire, France métropolitaine, 37460, France","LE LIEGE, France",47.2283352,1.1032656
FRANCE,LE MAGDELAINE,64.0,6/6/1944,6/6/1944,2,"Le Village et la Magdelaine, Bellesserre, Toulouse, Haute-Garonne, Occitanie, France métropolitaine, 31480, France","LE MAGDELAINE, France",43.7909897,1.1091739
FRANCE,LE MANOIR,770.0,5/27/1944,8/13/1944,14,"Le Manoir, Bayeux, Calvados, Normandie, France métropolitaine, 14400, France","LE MANOIR, France",49.284173,-0.5955356
FRANCE,LE MANS,5564.0,3/13/1944,8/5/1944,150,"Le Mans, Sarthe, Pays de la Loire, France métropolitaine, France","LE MANS, France",48.0073849,0.1967849
FRANCE,LE MESGE,66.0,6/25/1944,6/25/1944,3,"Le Mesge, Amiens, Somme, Hauts-de-France, France métropolitaine, 80310, France","LE MESGE, France",49.94463,2.05205
FRANCE,LE MESNIL ALLARD,152.0,5/27/1944,5/27/1944,2,,"LE MESNIL ALLARD, France",,
FRANCE,LE MESNIL AMEY,78.0,7/24/1944,7/24/1944,3,"Le Mesnil-Amey, Saint-Lô, Manche, Normandie, France métropolitaine, 50570, France","LE MESNIL AMEY, France",49.1061822,-1.2084634
FRANCE,LE NEUBOURG,21.0,8/13/1944,8/13/1944,1,"Le Neubourg, Bernay, Eure, Normandie, France métropolitaine, 27110, France","LE NEUBOURG, France",49.1496553,0.9044712
